province,city,address,longitude,latitude,price,buildingTypeId,tradeTypeId,listingDate,daysOnMarket,bedrooms
Manitoba,Winnipeg,144 Worthington Ave,-97.099787,49.841404,249900.0,1.0,1,12/6/2018,8,3.0
Ontario,Ottawa,52 Fulton Avenue,-75.693881,45.392297,819000.0,1.0,1,7/6/2018,9,3.0
Nova Scotia,Dartmouth,18 Londra Court,-63.5022326846557,44.68610570000001,184900.0,1.0,1,15/6/2018,13,3.0
Ontario,Bowmanville,339 Longworth Ave,-78.6822762,43.931821,539900.0,1.0,1,7/6/2018,22,3.0
Ontario,Kanata,69 Saddlehorn Crescent,-75.859353,45.287924,539900.0,1.0,1,9/6/2018,7,4.0
Ontario,Toronto,161 Drayton Ave,-79.3196983,43.6834014,929900.0,1.0,1,15/6/2018,11,3.0
British Columbia,Victoria,10-1393 Craigflower Rd,-123.419892,48.448968,99500.0,1.0,1,15/6/2018,29,1.0
Ontario,Kitchener,60 Valleyscape Drive,-80.427509,43.373722,999900.0,1.0,1,2/6/2018,26,5.0
Ontario,Toronto,512-318 King St E,-79.3637223,43.6525725,429900.0,2.0,1,20/6/2018,21,1.0
Ontario,Toronto,512-318 King St E,-79.3637223,43.6525725,429900.0,2.0,1,20/6/2018,21,4.0
Ontario,Arthur,8827 Wellington 14 Road,-80.543454,43.886114,549900.0,1.0,1,13/6/2018,2,4.0
Ontario,North York,209-2737 Keele St,-79.48075899999998,43.7257789,249000.0,2.0,1,23/6/2018,13,2.0
Ontario,Mississauga,1401-75 King St E,-79.613175,43.5804314,406000.0,2.0,1,19/6/2018,9,2.0
Ontario,Mississauga,2174 Belfast Cres,-79.6682611,43.5337503,1049900.0,1.0,1,28/6/2018,9,4.0
Ontario,Scarborough,2004-1470 Midland Ave,-79.2658163,43.7524146,449000.0,2.0,1,9/6/2018,27,2.0
New Brunswick,Bathurst,105 Bayshore Drive,-65.616417,47.652058,194000.0,1.0,1,16/6/2018,34,2.0
Ontario,North York,47 Blue Springs Rd,-79.49049120000002,43.71888679999999,889000.0,1.0,1,22/6/2018,28,4.0
Ontario,Kitchener,202-195 Commonwealth Street,-80.503203,43.403768,421900.0,2.0,1,16/6/2018,5,2.0
Alberta,Edmonton,9247 Ottewell Rd Nw,-113.4328278,53.5286418,549900.0,1.0,1,10/6/2018,16,4.0
Ontario,Brampton,1 Cool Water Dr,-79.76379,43.7555052,969900.0,1.0,1,5/6/2018,48,6.0
Ontario,Innisfil,1245 Coleman Crt,-79.5628682,44.3120391,437900.0,1.0,1,28/6/2018,9,3.0
Ontario,Binbrook,51 Fairgrounds Drive,-79.81095,43.127518,524990.0,1.0,1,14/6/2018,23,3.0
Ontario,Toronto,173 Emerson Ave,-79.44278309999999,43.6644199,998900.0,1.0,1,14/6/2018,8,4.0
Ontario,Welland,141 Lametti Dr,-79.225686,42.9899445,579000.0,1.0,1,3/6/2018,33,4.0
Ontario,Oakville,54-295 Royalton Common,-79.70820440000001,43.4788278,839900.0,1.0,1,23/6/2018,17,3.0
Ontario,Oakville,303-216 Oak Park Blvd,-79.7161931,43.4817293,389900.0,2.0,1,20/6/2018,14,1.0
Ontario,North York,1003-26 Norton Ave,-79.41283100000003,43.7726571,725000.0,2.0,1,9/6/2018,5,2.0
Alberta,Calgary,204 Aspen Stone Bv Sw,-114.216808,51.039047,429900.0,1.0,1,5/6/2018,12,2.0
Ontario,St Thomas,14 Acorn Trail,-81.1537,42.759922,465000.0,1.0,1,7/6/2018,21,5.0
Ontario,Toronto,510-225 Sackville St,-79.36272729999997,43.6598236,499900.0,2.0,1,22/6/2018,6,1.0
Ontario,Etobicoke,2303-2240 Lake Shore Blvd W,-79.4833203,43.62106370000001,439900.0,2.0,1,13/6/2018,25,2.0
Ontario,Windsor,737 Rodfam Court,-83.003582,42.243114,309900.0,2.0,1,7/6/2018,6,2.0
Saskatchewan,Saskatoon,155 Pickard By,-106.56458700000002,52.155798,494900.0,2.0,1,15/6/2018,22,1.0
Ontario,Etobicoke,612-40 Panorama Crt,-79.57992209999998,43.7477413,219900.0,1.0,1,5/6/2018,21,4.0
Alberta,Calgary,73 Evansbrooke Wy Nw,-114.121222,51.164227,524900.0,1.0,1,1/6/2018,21,4.0
Ontario,Oro-Medonte,954 3 Line S,-79.5675044,44.419087,899900.0,1.0,1,5/6/2018,23,4.0
Alberta,Drumheller,231 13 Street Nw,-112.741992,51.468768,438800.0,1.0,1,5/6/2018,25,3.0
Ontario,Tottenham,11 Stych St,-79.80350200000002,44.0124513,675000.0,1.0,1,13/6/2018,23,3.0
Alberta,Edmonton,15116 22 St Nw,-113.3738448,53.6138556,249500.0,2.0,1,10/6/2018,24,2.0
Ontario,Whitby,502-340 Watson St,-78.93823859999998,43.8597261,495000.0,1.0,1,1/6/2018,32,4.0
Ontario,Angus,451 Greenwood Drive,-79.855818,44.31289,599000.0,1.0,1,12/6/2018,22,3.0
Ontario,Mississauga,6092 Windfleet Crescent,-79.705472,43.604796,699900.0,1.0,1,15/6/2018,8,3.0
Ontario,Oakville,5-3045 Gladeside Ave,-79.7450196,43.4680954,678900.0,1.0,1,1/6/2018,10,4.0
Ontario,Ajax,240 Ravenscroft Rd,-79.051926,43.871704,649900.0,2.0,1,7/6/2018,13,4.0
Alberta,Grande Prairie,12006 105a St Street,-118.8111982,55.1889605,339900.0,1.0,1,2/6/2018,26,3.0
Saskatchewan,Saskatoon,247 Childers Cv,-106.753806,52.134343,389900.0,1.0,1,14/6/2018,34,3.0
Ontario,Nepean,362 Berrigan Drive,-75.731289,45.281306,374900.0,1.0,1,5/6/2018,15,2.0
Ontario,Arnprior,5 Hill Road,-76.365113,45.446144,139900.0,2.0,1,13/6/2018,8,1.0
Ontario,St Catharines,41 Cumming Street,-79.24918199999998,43.141717,225000.0,2.0,1,20/6/2018,24,2.0
Ontario,North York,636-770 Lawrence Ave W,-79.4523692,43.7152182,395000.0,1.0,1,22/6/2018,2,3.0
Ontario,London,438 Beachwood Avenue,-81.275193,42.960492,274900.0,1.0,1,22/6/2018,6,3.0
Ontario,Hamilton,487 Dunsmure Rd,-79.8178019,43.2442628,349900.0,1.0,1,29/6/2018,9,4.0
Quebec,Boisbriand,788 Rue De Charlevoix,-73.840618,45.610123,224900.0,2.0,1,5/6/2018,8,1.0
Ontario,Windsor,595 Maple,-83.087124,42.231935,249900.0,1.0,1,1/6/2018,5,4.0
Ontario,Scarborough,2618-135 Village Green Sq,-79.2807394266129,43.777341279337904,399000.0,1.0,1,12/6/2018,13,3.0
Ontario,St Agatha,1807 Notre Dame Drive,-80.62698,43.433852,439900.0,1.0,1,19/6/2018,12,3.0
New Brunswick,Petit-Rocher-Sud,1203 Route 134,-65.63250500000001,47.61148,415000.0,1.0,1,14/6/2018,29,3.0
Quebec,Blue Sea,88 Mtée Des Pins,-76.093453,46.160604,189900.0,2.0,1,14/6/2018,21,2.0
Quebec,Saint-Philippe,530 Rue Marthe,-73.49216934,45.36518795,263900.0,1.0,1,4/6/2018,11,3.0
Ontario,Innisfil,2225 Merrett St,-79.53747779999998,44.3224009,350000.0,2.0,1,12/6/2018,37,1.0
Ontario,Brampton,117-25 Via Rosedale,-79.7767402,43.7443576,359900.0,2.0,1,9/6/2018,11,2.0
Ontario,Windsor,6041 North Woodmont,-83.06890899999998,42.245879,219900.0,1.0,1,19/6/2018,12,3.0
Ontario,Hamilton,19 8th Conc Road E,-79.98804100000002,43.366716,624900.0,1.0,1,26/6/2018,23,3.0
Quebec,Gatineau,131 Rue De L'Épée,-75.70325507,45.50090783,279888.0,1.0,1,13/6/2018,1,4.0
Ontario,North York,122-36 Venetian Cres,-79.5141687,43.75383460000001,399000.0,1.0,1,5/6/2018,30,3.0
Manitoba,Winnipeg,438 Queenston St,-97.187095,49.865294,389900.0,1.0,1,21/6/2018,9,1.0
Ontario,North York,12 Arthur Griffith Dr,-79.5098647,43.74518870000001,699900.0,1.0,1,7/6/2018,8,3.0
Ontario,Georgetown,36 Harding Street,-79.91126899999998,43.652876,599000.0,2.0,1,1/6/2018,1,2.0
Quebec,Montréal,4309-5150 Rue Buchan,-73.65096566,45.49800423,405000.0,1.0,1,2/6/2018,42,5.0
Ontario,Scarborough,3 Orleans Dr,-79.1606022,43.7950232,749000.0,1.0,1,3/6/2018,7,4.0
Ontario,Oshawa,1195 Wecker Dr,-78.84890329999998,43.86641270000001,459900.0,2.0,1,6/6/2018,13,4.0
Alberta,Calgary,65 Armstrong Cr Se,-114.054368,50.970634,439000.0,1.0,1,26/6/2018,23,3.0
Ontario,Espanola,395 Queensway Avenue,-81.76809399999998,46.250129,399000.0,1.0,1,22/6/2018,27,4.0
Ontario,Toronto,29 Cloverdale Rd,-79.4615926,43.6746447,939000.0,1.0,1,14/6/2018,20,3.0
Alberta,Edmonton,5517 Crabapple Loop Sw,-113.4783347,53.40838220000001,389000.0,1.0,1,15/6/2018,35,3.0
Alberta,Edmonton,5517 Crabapple Loop Sw,-113.4783347,53.40838220000001,389000.0,1.0,1,15/6/2018,35,3.0
Ontario,Etobicoke,236 Renforth Dr,-79.5685838,43.6360206,924900.0,2.0,1,23/6/2018,12,2.0
Alberta,Edmonton,9759 87 Av Nw,-113.482575815344,53.5225826214534,485000.0,1.0,1,19/6/2018,11,3.0
British Columbia,Ladysmith,565 Jim Cram Drive,-123.842969,48.999701,399900.0,2.0,1,8/6/2018,15,1.0
Ontario,Toronto,Ph10-170 Fort York Blvd,-79.3997415,43.6393466,499000.0,1.0,1,6/6/2018,12,3.0
Manitoba,Winnipeg,10 Dallas Rd,-97.252669,49.88128,279900.0,1.0,1,1/7/2018,13,4.0
British Columbia,Victoria,3715 Stamboul St,-123.331167,48.46179,899900.0,1.0,1,7/6/2018,16,3.0
Ontario,Mount Forest,107 Byeland Drive,-80.73791800000002,43.986856,249900.0,1.0,1,9/6/2018,36,3.0
Ontario,Toronto,58 Amroth Ave,-79.31143840000001,43.6850406,599000.0,2.0,1,8/6/2018,6,2.0
Nova Scotia,New Glasgow,124 Mackay Street,-62.6407254,45.5869153,45900.0,2.0,1,5/6/2018,18,2.0
Ontario,North York,314-25 Sunrise Ave,-79.3017487,43.7190266,349900.0,2.0,1,4/6/2018,17,2.0
Quebec,Laval,102-1710 Rue Mcnamara,-73.72187493,45.57009349,265000.0,1.0,1,23/6/2018,20,3.0
Alberta,Edmonton,10015 171 Av Nw,-113.49709,53.63253,275000.0,1.0,1,14/6/2018,26,3.0
Ontario,Brampton,39 Princeton Terrace,-79.74241500000002,43.744643,749900.0,2.0,1,5/6/2018,34,2.0
British Columbia,Coquitlam,316 1219 Johnson Street,-122.8015611,49.2857501,545000.0,2.0,1,1/7/2018,13,4.0
Ontario,Sarnia,242 Oslo Crescent,-82.353775,42.964342,319900.0,1.0,1,26/6/2018,17,4.0
Ontario,Staples,522 County Rd 8,-82.601223,42.170001,419000.0,1.0,1,14/6/2018,12,2.0
Ontario,Welland,287 Riverside Drive,-79.271314,42.979319,309900.0,1.0,1,16/6/2018,7,3.0
Ontario,Mississauga,43-601 Shoreline Dr,-79.6301585,43.57084310000001,549000.0,2.0,1,14/6/2018,12,1.0
British Columbia,North Vancouver,308 3732 Mt Seymour Parkway,-122.968106,49.3162038,539900.0,2.0,1,7/6/2018,13,2.0
British Columbia,Nanaimo,201-2115 Meredith Road,-123.989915,49.188069,319000.0,2.0,1,22/6/2018,18,2.0
Ontario,Kingston,55 Rose Abbey Drive,-76.4493437,44.258655,229900.0,1.0,1,27/6/2018,20,3.0
British Columbia,Victoria,1245 Parkdale Creek Gdns,-123.532112,48.440213,569000.0,2.0,1,20/6/2018,31,2.0
Prince Edward Island,Charlottetown,20 Robertson Road,-63.1025,46.2757,354900.0,1.0,1,2/6/2018,21,4.0
Manitoba,Winnipeg,18 Galinee Bay,-97.298127,49.877275,359900.0,1.0,1,15/6/2018,11,3.0
Alberta,Calgary,401 26 Av Nw,-114.067683,51.076038,675000.0,2.0,1,21/6/2018,14,2.0
British Columbia,Chilliwack,101 45765 Spadina Avenue,-121.9580269,49.170096,258920.0,1.0,1,8/6/2018,13,5.0
Alberta,St. Albert,7 Nadia Pl,-113.667848,53.6553167,1049000.0,1.0,1,11/6/2018,2,4.0
Ontario,Blyth,488 Gypsy Lane,-81.429714,43.738624,299000.0,2.0,1,12/6/2018,14,2.0
British Columbia,Campbell River,287 Arizona Drive,-125.2124,49.950228,525000.0,1.0,1,7/6/2018,19,3.0
Manitoba,Winnipeg,719 Rosseau Ave W,-97.022407,49.898524,336900.0,1.0,1,2/6/2018,25,5.0
Ontario,Barrie,181 Trail Blvd,-79.75751817226408,44.3941699023353,949999.0,1.0,1,5/6/2018,31,3.0
British Columbia,Courtenay,625 17th Street,-124.994813,49.681705,299000.0,2.0,1,13/6/2018,27,1.0
British Columbia,Vancouver,201 1515 E Broadway,-123.07326100000002,49.2626205,559000.0,1.0,1,10/6/2018,37,4.0
Ontario,Brampton,222 Archdekin Dr,-79.745987,43.709174,559900.0,2.0,1,14/6/2018,5,2.0
Manitoba,Winnipeg,4 Rampart Bay,-97.158103,49.839469,204900.0,1.0,1,6/6/2018,13,3.0
Ontario,Brampton,7 Shellbark Gdns,-79.818682,43.697077,599900.0,1.0,1,8/6/2018,33,3.0
Ontario,Seguin,27 Peninsula Trail,-79.970244,45.267008,559900.0,1.0,1,19/6/2018,23,4.0
Ontario,Gloucester,743 Vermillion Drive,-75.686814,45.286254,559900.0,1.0,1,17/6/2018,24,3.0
Ontario,Toronto,5 Mark St,-79.3570553,43.6606055,899900.0,1.0,1,6/6/2018,9,6.0
British Columbia,Kamloops,2652 Rosewood Ave,-120.423691,50.709633,549900.0,1.0,1,27/6/2018,18,3.0
Ontario,Belmont,381 Sherwood Avenue,-81.08407700000002,42.880949,375000.0,1.0,1,23/6/2018,4,3.0
Ontario,Nepean,232 Berrigan Drive,-75.73708,45.279758,399900.0,1.0,1,10/6/2018,3,4.0
Alberta,Lloydminster,2303 60th Avenue,-110.034543,53.257187,369900.0,2.0,1,5/6/2018,22,1.0
British Columbia,Victoria,310-2100 Granite St,-123.319808,48.425587,324900.0,2.0,1,13/6/2018,7,1.0
Ontario,Waterloo,321-308 Lester St,-80.5362467,43.476282,275000.0,1.0,1,1/7/2018,6,2.0
Alberta,Three Hills,604 8 Street Ne,-113.264109,51.714288,185000.0,1.0,1,4/6/2018,48,4.0
Ontario,Stoney Creek,105 Glenhollow Dr,-79.8035177,43.189611,474990.0,1.0,1,27/6/2018,9,6.0
Ontario,Nepean,256 Flodden Way,-75.703059,45.284743,674900.0,1.0,1,19/6/2018,12,3.0
Ontario,Gananoque,879 Queen Street,-76.1712302767212,44.3409016144409,260000.0,1.0,1,6/6/2018,9,6.0
British Columbia,Abbotsford,27637 Signal Court,-122.4580297,49.0537883,859900.0,1.0,1,20/6/2018,21,3.0
Ontario,Oakville,239 Margaret Dr,-79.6839093,43.4390829,899900.0,2.0,1,1/7/2018,17,3.0
Alberta,Lethbridge,112 75 1 Avenue S,-112.847553,49.698027,264900.0,1.0,1,21/6/2018,26,4.0
Ontario,Belleville,146 Greenhill Lane,-77.373159,44.189432,374900.0,1.0,1,7/6/2018,16,3.0
Ontario,Cambridge,27-235 Saginaw Parkway,-80.299627,43.389729,299900.0,2.0,1,19/6/2018,28,1.0
Alberta,Edmonton,12147 123 St Nw,-113.533584,53.5765249,264900.0,1.0,1,14/6/2018,2,2.0
Alberta,Grande Prairie,9359 71 Avenue,-118.77561812,55.14504701,349900.0,1.0,1,12/6/2018,10,4.0
British Columbia,Surrey,37 8383 159 Street,-122.7818784,49.1538994,649000.0,2.0,1,27/6/2018,20,3.0
Ontario,Timmins,41 Foothills Ln,-81.3061177,48.5016695,105950.0,1.0,1,2/6/2018,19,4.0
Ontario,Windsor,1695 Calvary,-82.88616999999998,42.303201,765000.0,2.0,1,23/6/2018,17,3.0
British Columbia,Courtenay,166-4714 Muir Road,-124.974717,49.71671,299999.0,1.0,1,24/6/2018,20,2.0
British Columbia,Trail,770 Binns Street,-117.71847,49.095897,194000.0,1.0,1,28/6/2018,6,3.0
Ontario,Coe Hill,335 Beach Lane,-77.8412536,44.84331020000001,549900.0,2.0,1,1/6/2018,6,2.0
Ontario,Ottawa,3250 Uplands Drive Unit29,-75.676567,45.348956,218000.0,1.0,1,22/6/2018,30,4.0
Ontario,Little Britain,6 Summer Dr,-78.8075354,44.2095011,699000.0,2.0,1,8/6/2018,36,1.0
British Columbia,Chilliwack,50832 Winona Road,-121.817135005809,49.0806736749652,549000.0,1.0,1,7/6/2018,13,2.0
Alberta,Edmonton,11240 69 St Nw,-113.44463799999998,53.5645791,315000.0,1.0,1,19/6/2018,7,4.0
Alberta,Calgary,827 94 Av Sw,-114.083918,50.970211,549000.0,1.0,1,14/6/2018,23,5.0
Nova Scotia,Bedford,46 Riverview Crescent,-63.6513672,44.7416552,339900.0,1.0,1,19/6/2018,17,3.0
British Columbia,Youbou,9178 Meades Creek Road,-124.112182,48.848761,824900.0,1.0,1,15/6/2018,11,3.0
Ontario,Toronto,30 Westlake Ave,-79.3044886,43.68593900000001,750000.0,1.0,1,6/6/2018,9,4.0
Ontario,London,179 Kirkland Crescent,-81.17174399999998,42.993333,284900.0,1.0,1,1/6/2018,19,3.0
Ontario,Katrine,397 Sunnylea Avenue,-79.327232,45.599329,449900.0,1.0,1,6/6/2018,35,3.0
Ontario,Peterborough,987 Ford Street,-78.338955,44.288372,299000.0,1.0,1,15/6/2018,32,2.0
Ontario,Nepean,252 Tivoli Private,-75.71010799999998,45.348467,282900.0,1.0,1,1/6/2018,17,2.0
Ontario,Beamsville,4579 Joanna Lane,-79.455302,43.174092,184900.0,1.0,1,9/6/2018,11,5.0
Saskatchewan,Regina,3610 Green Creek Rd,-104.515302,50.421345,659900.0,1.0,1,12/6/2018,29,3.0
Nova Scotia,Greenfield.,131 Cottage Lane,-64.9000171671854,44.23341909738279,179900.0,1.0,1,13/6/2018,23,3.0
Quebec,Pointe-Aux-Trembles,1021 58e Avenue (P.-A.-T.),-73.495747,45.674284,259800.0,2.0,1,5/6/2018,17,1.0
British Columbia,Richmond,438 5880 Dover Crescent,-123.160734,49.1729761,440000.0,1.0,1,2/6/2018,28,3.0
Ontario,Kingston,678 Rogers Side Road,-76.412391,44.2522475,409900.0,1.0,1,15/6/2018,19,4.0
Ontario,Windsor,1254 Arncliffe Place,-82.927755,42.324566,114900.0,2.0,1,7/6/2018,8,2.0
British Columbia,Langley,39 7179 201 Street,-122.6668849,49.1323624,549900.0,1.0,1,5/6/2018,16,3.0
Ontario,Bayfield,11 Lidderdale Street,-81.70097700000002,43.556071,299000.0,1.0,1,26/6/2018,11,3.0
Ontario,Bayfield,11 Lidderdale Street,-81.70097700000002,43.556071,299000.0,1.0,1,26/6/2018,11,4.0
Ontario,Elliot Lake,55 Tokyo Cres,-82.66681990000002,46.3751424,35500.0,1.0,1,7/6/2018,15,2.0
Ontario,Burlington,75-2530 Northampton Blvd,-79.8265608,43.3876359,419900.0,1.0,1,4/6/2018,16,4.0
Ontario,Brampton,10 Elwin Rd,-79.81485179999999,43.6695454,1085000.0,1.0,1,1/6/2018,25,4.0
Alberta,Didsbury,2110 14 Av,-114.14028,51.655999,215000.0,1.0,1,8/6/2018,8,3.0
Ontario,Sarnia,779 Oakdale Avenue,-82.382202,42.988432,234900.0,1.0,1,5/6/2018,3,5.0
Ontario,Binbrook,1660 Hall Rd,-79.801048,43.0788933,719900.0,2.0,1,14/6/2018,26,1.0
British Columbia,North Vancouver,111 175 E 4th Street,-123.07363159999998,49.3127891,350000.0,2.0,1,14/6/2018,8,5.0
Alberta,Rimbey,4 422033 Range Road 24,-114.239644,52.61725,599900.0,1.0,1,6/6/2018,24,2.0
Quebec,Mont-Royal,1843-1847 Ch. Canora,-73.64913100000003,45.518577,1050000.0,1.0,1,22/6/2018,22,5.0
British Columbia,Richmond,66 7288 Heather Street,-123.121828,49.161172,1146000.0,1.0,1,8/6/2018,21,4.0
Alberta,Calgary,2154 47 Av Sw,-114.111376,51.01137,569900.0,2.0,1,1/6/2018,16,2.0
British Columbia,Vancouver,304 1066 Hamilton Street,-123.1204946,49.2762465,1080000.0,2.0,1,6/6/2018,35,1.0
Ontario,Burlington,705 Cedar Avenue,-79.823195,43.320031,899900.0,1.0,1,12/6/2018,37,3.0
Ontario,Bowmanville,21-571 Longworth Ave,-78.6894103,43.929766,474900.0,2.0,1,8/6/2018,34,2.0
Newfoundland & Labrador,St. John'S,20 Augusta Court,-52.69051700000001,47.58562,409500.0,1.0,1,8/6/2018,35,3.0
Ontario,Hamilton,52 East 26th Street,-79.847758,43.23891,479900.0,2.0,1,27/6/2018,13,2.0
Ontario,Brantford,58 Donegal Drive,-80.295412,43.127933,499900.0,1.0,1,13/6/2018,27,4.0
Alberta,Lethbridge,635 Keystone Chase W,-112.914148,49.668635,365000.0,1.0,1,1/6/2018,33,3.0
Ontario,Windsor,723 University East,-83.028319,42.320132,159900.0,1.0,1,9/6/2018,25,4.0
Ontario,Woodstock,387 Champlain Ave,-80.748336,43.1114122,554900.0,1.0,1,9/6/2018,36,4.0
Alberta,Calgary,66 Chapalina Gr Se,-114.041243,50.879552,669900.0,1.0,1,2/6/2018,21,3.0
Ontario,Mississauga,1099 Bordeaux Crt,-79.60395009999998,43.5393754,869000.0,1.0,1,1/6/2018,8,3.0
Ontario,Pickering,4-1635 Pickering Pkwy,-79.072301,43.840144,439900.0,1.0,1,1/6/2018,13,5.0
Saskatchewan,Saskatoon,3024 Eastview,-106.618702,52.09321,319900.0,1.0,1,14/6/2018,15,3.0
Ontario,Kitchener,64 Weichel Street,-80.518116,43.441448,449900.0,1.0,1,9/6/2018,4,3.0
Ontario,Windsor,1239 Monmouth,-83.004035,42.31459,124900.0,1.0,1,19/6/2018,7,3.0
Ontario,Binbrook,247 Fall Fair Way Way,-79.811667,43.125432,489900.0,1.0,1,19/6/2018,10,4.0
Ontario,Toronto,150 Roselawn Ave,-79.4038094,43.71015429999999,1198000.0,1.0,1,7/6/2018,8,6.0
Ontario,Brampton,67 Jack Rabbit Cres,-79.7432516,43.7585713,939000.0,1.0,1,1/6/2018,12,3.0
Quebec,Sainte-Cécile-De-Masham,46 Ch. De La Prairie,-76.03078829,45.63525771,184900.0,1.0,1,5/6/2018,42,3.0
Ontario,Etobicoke,806-5 Marine Parade Dr,-79.4755739,43.6299034,559000.0,1.0,1,6/6/2018,16,4.0
Manitoba,Winnipeg,232 Smithfield Ave,-97.124292,49.9314,239900.0,1.0,1,7/6/2018,24,1.0
Ontario,Verona,1096 Storms Lane,-76.67930229999997,44.4909036,250000.0,1.0,1,2/6/2018,24,3.0
Alberta,Blackfalds,2 Artemis Place,-113.792731,52.390984,314900.0,1.0,1,20/6/2018,6,4.0
British Columbia,Langley,9442 204 Street,-122.6569254,49.1742306,1099900.0,1.0,1,21/6/2018,21,3.0
Ontario,Oakville,3056 Dewridge Avenue,-79.77764,43.433238,554900.0,1.0,1,16/6/2018,8,4.0
Ontario,Brampton,44 Begonia Cres,-79.8252753,43.7243641,699800.0,2.0,1,12/6/2018,33,2.0
British Columbia,Surrey,L105 13468 King George Boulevard,-122.8493874,49.20103889999999,409900.0,1.0,1,30/6/2018,20,2.0
Ontario,London,772 Strand Street,-81.221508,43.003716,189900.0,1.0,1,1/6/2018,4,3.0
Ontario,Georgetown,9 Gollop Crescent,-79.872999,43.641948,874900.0,1.0,1,2/6/2018,21,4.0
Ontario,Jarvis,3 Champlain Court,-80.107907,42.890679,359900.0,2.0,1,19/6/2018,25,3.0
Ontario,Geraldton,77 Macphail Dr,-86.9515349,49.727343,155000.0,1.0,1,12/6/2018,36,5.0
Manitoba,East Selkirk,170 Bridgeview Es,-96.824778,50.189264,569900.0,1.0,1,8/6/2018,29,3.0
Ontario,Burlington,5054 Mercer Common,-79.75958299999998,43.374064,679747.0,1.0,1,7/6/2018,5,4.0
Ontario,Acton,14 Dairy Drive,-80.046816,43.636977,599900.0,1.0,1,16/6/2018,12,5.0
Quebec,Val-Des-Monts,35 Ch. De La Chaumière,-75.78457997,45.71330962,124900.0,2.0,1,13/6/2018,17,2.0
British Columbia,Gibsons,36 689 Park Road,-123.52397,49.408137,369000.0,1.0,1,3/6/2018,32,5.0
Ontario,Tillsonburg,6 Bobolink Drive,-80.743425,42.883414,550000.0,1.0,1,30/6/2018,20,5.0
Ontario,Newmarket,320 Mccaffrey Rd,-79.49188199999998,44.040785,969900.0,1.0,1,8/6/2018,26,4.0
Ontario,Binbrook,90 Tanglewood Drive,-79.800616,43.122633,659000.0,1.0,1,1/7/2018,17,3.0
British Columbia,Forest Grove,3568 Bradley Creek Road,-121.029865572487,51.854465104245,359900.0,2.0,1,2/6/2018,6,1.0
Ontario,Ottawa,500 Laurier Avenue W Unit2303,-75.70536,45.415821,275000.0,2.0,1,1/6/2018,22,2.0
Manitoba,Winnipeg,3 3884 Ness Ave,-97.321271,49.88904,174900.0,1.0,1,1/6/2018,26,5.0
British Columbia,Burnaby,1 5983 Frances Street,-122.9769301,49.279551,588000.0,2.0,1,7/6/2018,7,4.0
Ontario,Windsor,685 Roselawn,-83.009342,42.258649,339000.0,2.0,1,14/6/2018,6,1.0
Ontario,Richmond Hill,1003-370 Highway 7 Rd,-79.3958712,43.8416373,389000.0,1.0,1,8/6/2018,21,4.0
Ontario,Ottawa,1493 Kilborn Avenue,-75.659823,45.387018,489900.0,1.0,1,7/6/2018,7,5.0
Nova Scotia,Kentville,1058 Marie Crescent,-64.487522,45.089074,159900.0,1.0,1,1/6/2018,21,3.0
Alberta,Edmonton,3517 41 Av Nw,-113.395435,53.47588100000001,287000.0,1.0,1,1/6/2018,26,3.0
New Brunswick,Albert Mines,675 Albert Mines Rd,-64.654187,45.855451,197900.0,2.0,1,2/6/2018,19,4.0
Quebec,Montréal,791 Ch. New Erin,-74.1560017,45.13518892,239000.0,2.0,1,22/6/2018,18,1.0
Ontario,Toronto,503-220 George St,-79.3730864,43.6556869,399000.0,2.0,1,21/6/2018,6,2.0
Ontario,Toronto,503-220 George St,-79.3730864,43.6556869,399000.0,1.0,1,21/6/2018,6,3.0
Alberta,Calgary,3915 29 Av Se,-113.978066,51.027618,199000.0,1.0,1,14/6/2018,14,6.0
Ontario,Mississauga,5545 Broadpath Gate,-79.74373359999998,43.5481527,968000.0,2.0,1,2/6/2018,16,2.0
Ontario,Bowmanville,323-61 Clarington Blvd,-78.70649209999998,43.9066828,329900.0,1.0,1,7/6/2018,15,2.0
Nova Scotia,Canning,102 Stairs Branch Road,-64.4319447619019,45.1510027400038,70000.0,1.0,1,6/6/2018,22,3.0
British Columbia,Prince George,7414 Carr Road,-122.79183372618999,53.9971844814519,284900.0,1.0,1,1/6/2018,13,5.0
Quebec,Montréal,6686 27e Avenue,-73.580384,45.566297,309000.0,1.0,1,8/6/2018,41,4.0
Ontario,Cannington,92 Cameron Street,-79.03471,44.3514,469900.0,1.0,1,7/6/2018,42,3.0
British Columbia,Salt Spring Island,326 Sunset Dr,-123.574099,48.889214,775000.0,1.0,1,28/6/2018,21,3.0
Manitoba,Winnipeg,422 Cabana Pl,-97.108532,49.888733,309900.0,1.0,1,17/6/2018,13,4.0
Ontario,Toronto,3 Ingham Ave,-79.3508631,43.6713319,799000.0,2.0,1,21/6/2018,7,0.0
Ontario,Toronto,111-24 Noble St,-79.43052159999998,43.64288679999999,449000.0,2.0,1,6/6/2018,2,3.0
Ontario,Barrie,105-120 Bell Farm Rd,-79.6776297,44.4112176,254900.0,2.0,1,14/6/2018,22,4.0
Alberta,Red Deer County,42 39259 C & E Trail,-113.811521,52.355849,709900.0,2.0,1,15/6/2018,22,4.0
Ontario,Keewatin,812 Fifth St,-94.5620438411392,49.7547318218095,199900.0,2.0,1,30/6/2018,12,1.0
British Columbia,Surrey,19237 72 Avenue,-122.689725,49.133825,999000.0,2.0,1,7/6/2018,9,2.0
Alberta,Edmonton,13611 131 St Nw,-113.5470234,53.59892270000001,339900.0,1.0,1,7/6/2018,12,3.0
British Columbia,Coquitlam,1228 Gabriola Drive,-122.77301609999998,49.287902,900000.0,2.0,1,22/6/2018,12,1.0
British Columbia,Vancouver,2102 1199 Seymour Street,-123.1252236,49.2768552,699000.0,1.0,1,7/6/2018,15,4.0
British Columbia,Surrey,14633 67b Avenue,-122.8166995,49.1258405,988000.0,1.0,1,19/6/2018,9,3.0
Ontario,Guelph,3 Chase Avenue,-80.27037299999998,43.536529,399000.0,2.0,1,7/6/2018,8,3.0
Ontario,Etobicoke,402-8 Drummond St,-79.49816729999998,43.61337879999999,749000.0,1.0,1,8/6/2018,14,4.0
Ontario,Collingwood,629 Hurontario Street,-80.21426,44.488389,624900.0,2.0,1,1/6/2018,46,3.0
Ontario,Toronto,2009-20 Minowan Miikan Lane,-79.4281018,43.6428951,459900.0,2.0,1,16/6/2018,11,1.0
Ontario,Toronto,2009-20 Minowan Miikan Lane,-79.4281018,43.6428951,459900.0,2.0,1,16/6/2018,11,2.0
Ontario,Bowmanville,216 Liberty St N,-78.6867359,43.9248019,599900.0,1.0,1,7/6/2018,41,4.0
Alberta,Calgary,44 Strathroy Ba Sw,-114.168556,51.049177,644000.0,2.0,1,28/6/2018,12,2.0
Ontario,Toronto,1009-1171 Queen St W,-79.4257314,43.642564,769000.0,2.0,1,30/6/2018,20,4.0
Ontario,Toronto,1009-1171 Queen St W,-79.4257314,43.642564,769000.0,2.0,1,30/6/2018,20,2.0
Ontario,Burlington,2455 Scholars Common,-79.81263299999998,43.35748,559900.0,1.0,1,21/6/2018,14,3.0
Ontario,Ennismore,595 Frederick Street,-78.40778,44.396631,249900.0,1.0,1,6/6/2018,8,4.0
Ontario,Lowbanks,2768 North Shore Drive,-79.453582,42.873639,689900.0,1.0,1,21/6/2018,6,4.0
Ontario,Elmira,27 Coral Gables Crescent,-80.575007,43.598077,689900.0,1.0,1,13/6/2018,12,2.0
Ontario,London,1500 Richmond Street 114,-81.274785,43.019729,299900.0,1.0,1,14/6/2018,8,3.0
British Columbia,Duncan,6376 Wicks Road,-123.68501299999998,48.801335,559000.0,1.0,1,5/6/2018,11,3.0
Quebec,Montréal,11845 Rue Alexander-C.-Hutchison,-73.49450892,45.69271731,299000.0,1.0,1,28/6/2018,6,3.0
British Columbia,Salmon Arm,"33 801 20 Street, Ne",-119.265862,50.705071,499900.0,1.0,1,2/6/2018,41,4.0
Ontario,Grafton,2940 Shelter Valley Road,-77.977933,44.059435,549000.0,1.0,1,15/6/2018,8,4.0
Alberta,Calgary,21 Evanscove Mr Nw,-114.116915,51.166546,425000.0,2.0,1,9/6/2018,43,2.0
Ontario,Scarborough,8j-8 Rosebank Dr,-79.2374037,43.79183560000001,339000.0,1.0,1,16/6/2018,10,4.0
Manitoba,Winnipeg,325 Hazel Dell Ave,-97.095497,49.928504,214900.0,1.0,1,16/6/2018,7,3.0
Ontario,Orillia,428 Raymond Avenue,-79.39443399999998,44.600881,349900.0,1.0,1,30/6/2018,17,2.0
Newfoundland & Labrador,Conception Bay South,64-66 Seal Cove Road,-68.33519,44.288411,119900.0,1.0,1,5/6/2018,16,4.0
Ontario,Port Rowan,2978 Lakeshore Road,-80.472716,42.60590300000001,250000.0,1.0,1,1/6/2018,26,5.0
Alberta,St. Albert,74 Lafleur Dr,-113.6647993,53.6434999,739900.0,1.0,1,10/6/2018,26,4.0
Alberta,Calgary,164 Covepark Wy Ne,-114.05541399999998,51.165688,395000.0,1.0,1,8/6/2018,32,3.0
Quebec,Lac-Supérieur,272 Ch. Du Lac-Godon,-74.39096419,46.14311158,179900.0,2.0,1,28/6/2018,2,1.0
Ontario,Kitchener,203-404 King Street W,-80.49663699999998,43.452667,245000.0,1.0,1,6/6/2018,5,5.0
Ontario,Toronto,73 Balfour Ave,-79.2979292,43.6908687,1150000.0,1.0,1,1/6/2018,5,5.0
British Columbia,Vancouver,305 688 W 12th Avenue,-123.1190341,49.2602331,749900.0,1.0,1,6/6/2018,31,3.0
Alberta,Calgary,4 Royal Birch Gr Nw,-114.221667,51.142931,489900.0,1.0,1,28/6/2018,19,3.0
British Columbia,Surrey,13477 69 Avenue,-122.849049,49.128181,749999.0,2.0,1,6/6/2018,21,1.0
British Columbia,Victoria,2883 Orange Blossom Cres,-123.54321000000002,48.452074,474800.0,2.0,1,15/6/2018,14,2.0
Manitoba,Winnipeg,471 Parkview St,-97.213933,49.888766,259900.0,1.0,1,14/6/2018,12,4.0
Ontario,Burlington,1232 Nottingham Avenue,-79.812862,43.356485,644500.0,1.0,1,14/6/2018,26,5.0
Alberta,St. Albert,17 Emery Co,-113.62863652149599,53.6604558567702,589900.0,1.0,1,1/6/2018,20,3.0
Quebec,Val-D'Or,140 Rue Pierret,-77.80591120000003,48.093692,294500.0,1.0,1,28/6/2018,23,4.0
Ontario,Simcoe,830 Mcdowell Rd E,-80.4234945774078,42.791666951692704,899900.0,1.0,1,8/6/2018,43,2.0
New Brunswick,Hampton,86 Centennial Road,-65.822914,45.528173,174900.0,1.0,1,8/6/2018,40,5.0
Alberta,Camrose,121 19518 Township Road 452,-112.74728,52.871549,639900.0,1.0,1,2/6/2018,6,3.0
Ontario,Amherstburg,202 Park,-83.10575,42.099062,164202.0,1.0,1,2/6/2018,27,4.0
Quebec,Vaudreuil-Dorion,106 Rue Guy,-74.03910598,45.39917934,369000.0,1.0,1,1/6/2018,21,1.0
Ontario,Bobcaygeon,275 George Drive,-78.508948,44.45307800000001,214900.0,1.0,1,19/6/2018,10,3.0
Saskatchewan,Regina,31 Lawson St,-104.625054,50.483828,334900.0,1.0,1,6/6/2018,13,4.0
Ontario,Scarborough,26 Manorwood Rd,-79.2510618,43.7644371,699000.0,1.0,1,14/6/2018,9,6.0
Ontario,Guelph,169 Dallan Drive,-80.18136899999998,43.502079,819900.0,2.0,1,5/6/2018,21,1.0
Ontario,Toronto,410-18 Harbour St,-79.376994,43.64304600000001,599900.0,1.0,1,13/6/2018,24,5.0
Ontario,Hamilton,723 West 5th St,-79.889466,43.2217788,399900.0,1.0,1,6/6/2018,42,3.0
Ontario,Hamilton,12 145 Rice Avenue,-79.91656400000002,43.233148,399900.0,1.0,1,5/6/2018,43,3.0
Ontario,Cornwall,270 Twelfth Street W,-74.743765,45.029414,99900.0,2.0,1,29/6/2018,8,2.0
British Columbia,New Westminster,1305 420 Carnarvon Street,-122.9068529,49.204811,685000.0,1.0,1,1/6/2018,47,3.0
Ontario,Inverary,3764 Fairground Road,-76.4715777,44.3875101,289000.0,1.0,1,29/6/2018,12,3.0
Ontario,Kitchener,175 West Oak Trail,-80.49474000000002,43.383715,475000.0,2.0,1,7/6/2018,2,2.0
Ontario,Bracebridge,32 Stuart Lane,-79.31550899999998,45.028609,319900.0,2.0,1,2/6/2018,26,1.0
Ontario,Ottawa,138 Somerset Street W Unit608,-75.689214,45.418038,324900.0,2.0,1,1/6/2018,25,2.0
British Columbia,Burnaby,503 4567 Hazel Street,-123.0021212,49.23068920000001,738000.0,2.0,1,23/6/2018,19,3.0
Ontario,Kingston,1613 Providence Crescent,-76.5543748,44.26632070000001,429900.0,1.0,1,6/6/2018,20,3.0
British Columbia,Prince George,1077 Ewert Street,-122.77248188954901,53.914873574647,275000.0,2.0,1,8/6/2018,14,2.0
Ontario,Burlington,1504 5250 Lakeshore Road,-79.734892,43.365377,609000.0,2.0,1,16/6/2018,14,1.0
British Columbia,Coquitlam,410 3110 Dayanee Spring Boulevard,-122.7844922,49.2934643,500000.0,1.0,1,22/6/2018,19,3.0
Ontario,Waterloo,687 Grange Crescent,-80.56065,43.438554,409900.0,2.0,1,9/6/2018,10,2.0
Ontario,Toronto,523-1030 King St W,-79.4159028,43.641579,619900.0,1.0,1,8/6/2018,28,4.0
British Columbia,Campbell River,1057 Cordero Cres,-125.230969,49.954139,539700.0,1.0,1,15/6/2018,27,3.0
Ontario,Nepean,249 Deercroft Avenue,-75.741399,45.274117,179900.0,1.0,1,13/6/2018,9,3.0
British Columbia,Richmond,59 10311 River Drive,-123.106323,49.197586,898000.0,1.0,1,16/6/2018,3,3.0
Ontario,Kitchener,307-20 Ellen Street E,-80.483455,43.455159,206900.0,2.0,1,22/6/2018,4,1.0
British Columbia,Richmond,803 3111 Corvette Way,-123.13376370000002,49.1903353,479000.0,2.0,1,16/6/2018,13,1.0
British Columbia,Victoria,612-728 Yates St,-123.363559,48.426247,397000.0,1.0,1,1/7/2018,12,4.0
Ontario,Markham,40 Ayhart St,-79.2744272,43.9015545,899000.0,2.0,1,8/6/2018,18,3.0
British Columbia,Surrey,302 10088 148 Street,-122.8098958,49.1853255,519000.0,2.0,1,12/6/2018,32,2.0
Ontario,Toronto,212-3 Mcalpine St,-79.39073359999998,43.6738894,950000.0,2.0,1,19/6/2018,15,2.0
Ontario,Toronto,212-3 Mcalpine St,-79.39073359999998,43.6738894,950000.0,1.0,1,19/6/2018,15,4.0
Ontario,Ajax,35 Swanston Cres,-79.0212205,43.8262872,575000.0,1.0,1,12/6/2018,10,2.0
Ontario,Hamilton,28 Arkell Street,-79.90405600000003,43.260084,649900.0,1.0,1,15/6/2018,6,3.0
Ontario,Nepean,104 Keltie Private,-75.740763,45.273889,234900.0,1.0,1,1/6/2018,19,5.0
Ontario,Brampton,77 Kingswood Dr,-79.7616511,43.70415300000001,434900.0,2.0,1,10/6/2018,7,2.0
British Columbia,Burnaby,1105 2008 Rosser Avenue,-123.0055412,49.2660666,643000.0,1.0,1,2/6/2018,26,4.0
Ontario,Markham,26 Voysey Way,-79.2509847,43.8400749,788800.0,1.0,1,10/6/2018,35,2.0
Quebec,Mont-Tremblant,361 Rue Boivin,-74.602758,46.117135,209900.0,1.0,1,1/6/2018,43,3.0
Ontario,Guelph,58 Laughland Lane,-80.176517,43.509966,489900.0,1.0,1,6/6/2018,14,3.0
Ontario,Stouffville,2 Shane Crt,-79.23643630000002,43.9783779,629900.0,2.0,1,5/6/2018,1,1.0
Alberta,Redcliff,330 Main Street N,-110.789754,50.072342,182900.0,1.0,1,1/6/2018,7,4.0
Saskatchewan,Melville,24 Park Blvd,-102.785702,50.933644,305000.0,2.0,1,2/6/2018,18,1.0
British Columbia,Vancouver,403 933 Seymour Street,-123.1214703,49.2792146,674900.0,2.0,1,6/6/2018,22,1.0
British Columbia,Whistler,314d 2020 London Lane,-122.98880590000002,50.0959511,135000.0,1.0,1,10/6/2018,9,4.0
Ontario,Mississauga,2844 Galleon Cres,-79.7355402,43.5633589,920000.0,1.0,1,25/6/2018,22,3.0
Ontario,Guelph,15 Lambeth Way,-80.18002299999998,43.517006,429900.0,2.0,1,19/6/2018,17,2.0
British Columbia,Vancouver,302 688 Fairchild Road,-123.1200097,49.2307471,1085000.0,2.0,1,1/6/2018,7,2.0
British Columbia,Richmond,124 12633 No. 2 Road,-123.1591805,49.1207158,699900.0,2.0,1,2/6/2018,18,2.0
Quebec,Saint-Sauveur,19 Rue Du Prince,-74.16448100000002,45.894288,279000.0,1.0,1,21/6/2018,22,3.0
Ontario,Lyndhurst,456 Lyndhurst Road,-76.1211945,44.5525069,159803.0,1.0,1,21/6/2018,9,3.0
Alberta,Airdrie,170 Morningside Gardens Gd Sw,-114.010634,51.261824,399900.0,1.0,1,13/6/2018,11,3.0
Ontario,Binbrook,34-10 Pumpkin Pass,-79.812212,43.127014,424000.0,1.0,1,30/6/2018,11,4.0
Ontario,Guelph,60 Uplands Pl,-80.2514255,43.5772001,499900.0,1.0,1,5/6/2018,15,4.0
British Columbia,Richmond,512 5811 No 3 Road,-123.1372096,49.1725928,736000.0,2.0,1,13/6/2018,2,3.0
British Columbia,Victoria,3860 Lancaster Rd,-123.378155,48.463684,1199000.0,1.0,1,10/6/2018,33,4.0
Ontario,Scarborough,24 North Edgely Ave,-79.2645178,43.7059744,699900.0,2.0,1,6/6/2018,7,2.0
Alberta,Calgary,43 Midpark Dr Se,-114.059694,50.91193300000001,259000.0,1.0,1,30/6/2018,19,3.0
Ontario,Caledon,19 Maple Trail Rd,-79.8404601216316,43.75061564924379,674888.0,2.0,1,6/6/2018,14,1.0
British Columbia,Victoria,412-835 View St,-123.361529,48.424865,424900.0,1.0,1,30/6/2018,19,4.0
British Columbia,150 Mile House,2906 Prospector Road,-121.954437762676,52.1224501201293,422000.0,1.0,1,7/6/2018,42,5.0
Ontario,Scarborough,3356b Kingston Rd,-79.22162790000002,43.735044,699000.0,1.0,1,20/6/2018,29,5.0
Ontario,Scarborough,127 Flycatcher Ave,-79.2283076,43.8224588,699000.0,1.0,1,15/6/2018,34,3.0
Alberta,St. Albert,20 Sunnyside Cr,-113.6068274,53.62499129999999,319900.0,1.0,1,6/6/2018,41,2.0
Ontario,Vankleek Hill,346 County Rd 10 Road,-74.629463,45.512065,119000.0,1.0,1,15/6/2018,29,3.0
Manitoba,Winnipeg,58 Malone St,-97.309889,49.860191,309900.0,1.0,1,29/6/2018,15,3.0
Alberta,Calgary,13 287 Southampton Dr Sw,-114.087675,50.95274600000001,249900.0,2.0,1,4/6/2018,10,2.0
Ontario,Tillsonburg,1a Trillium Dr,-80.7541503,42.8809504,224900.0,1.0,1,30/6/2018,4,1.0
Nova Scotia,Lower Sackville,42 Victoria Drive,-63.68235,44.7905001,194900.0,1.0,1,27/6/2018,21,3.0
Ontario,Mississauga,1330 Weir Chse,-79.70533449999998,43.5962247,769999.0,1.0,1,2/6/2018,11,4.0
Alberta,Edmonton,13736 115 Av Nw,-113.5601964,53.5654363,300000.0,2.0,1,28/6/2018,12,1.0
Ontario,North York,613-15 James Finlay Way,-79.4799355,43.7259962,362900.0,2.0,1,1/6/2018,11,2.0
Alberta,Calgary,403 2320 Erlton St Sw,-114.062341,51.032906,485000.0,1.0,1,16/6/2018,31,3.0
Ontario,North York,272-10 Eddystone Ave,-79.51684809999998,43.7494371,174900.0,1.0,1,4/6/2018,17,3.0
Ontario,Mississauga,5975 Chidham Cres,-79.7373408,43.5754552,639900.0,1.0,1,23/6/2018,24,4.0
Ontario,Lunenburg,16265 Northfield Road,-74.933865,45.120803,368500.0,2.0,1,18/6/2018,28,2.0
Ontario,Vanier,270 Meilleur Private Unitk,-75.670342,45.438241,328500.0,1.0,1,14/6/2018,29,3.0
Ontario,North York,104 Topcliff Ave,-79.51104690000003,43.75598400000001,719900.0,2.0,1,5/6/2018,2,1.0
British Columbia,Vancouver,204 570 E 8th Avenue,-123.0915742,49.2631733,479000.0,1.0,1,24/6/2018,11,5.0
Alberta,Calgary,9179 Edgebrook Dr Nw,-114.129958,51.13757,699000.0,1.0,1,1/6/2018,35,4.0
Ontario,Ajax,39 Clapperton Dr,-79.04996170000003,43.886215,778000.0,1.0,1,8/6/2018,5,4.0
Ontario,Scarborough,18-2 Hedge End Rd,-79.1720567,43.8094125,519900.0,1.0,1,19/6/2018,8,6.0
British Columbia,Victoria,3652 Bridgeport Pl,-123.353826,48.45954,750000.0,2.0,1,1/6/2018,8,1.0
British Columbia,Vancouver,954 5515 Boundary Road,-123.0238419,49.2342864,588000.0,1.0,1,1/6/2018,25,4.0
British Columbia,Nanoose Bay,1600 Marina Way,-124.198252,49.30287,858000.0,1.0,1,6/6/2018,6,3.0
Ontario,Ottawa,1347 Dorchester Avenue,-75.732387,45.376832,399900.0,1.0,1,14/6/2018,15,3.0
Ontario,London,663 North Leaksdale Circle,-81.171448,42.962923,359900.0,1.0,1,4/6/2018,2,5.0
New Brunswick,Dieppe,73 Larochelle,-64.7128,46.0925,374900.0,1.0,1,23/6/2018,13,4.0
Ontario,Troy,1457 4th Conc Road W,-80.089388,43.296438,774950.0,1.0,1,6/6/2018,9,4.0
Ontario,Corbyville,248 Harmony Road,-77.407365,44.235888,337900.0,2.0,1,6/6/2018,6,2.0
British Columbia,Vancouver,2301 602 Citadel Parade Street,-123.1100866,49.2791133,930000.0,1.0,1,3/6/2018,25,3.0
Manitoba,Lowe Farm,9 Sunwest Dr,-97.594755,49.35481,279900.0,1.0,1,1/6/2018,7,3.0
Ontario,Toronto,65 Ritchie Ave,-79.4493254,43.6535461,799000.0,1.0,1,8/6/2018,14,2.0
Ontario,Milton,79 Tight Court,-79.866389,43.489288,539900.0,2.0,1,5/6/2018,16,2.0
Alberta,Calgary,1104 303 Arbour Crest Dr Nw,-114.202987,51.140399,315000.0,2.0,1,23/6/2018,30,2.0
Ontario,North York,1008-66 Forest Manor Rd,-79.3460908,43.77432520000001,599990.0,1.0,1,12/6/2018,5,4.0
Ontario,Mississauga,64-5260 Mcfarren Blvd,-79.71771600000002,43.569493,715000.0,1.0,1,1/6/2018,30,3.0
British Columbia,Gabriola,978 Descanso Valley Dr,-123.863069,49.167996,525000.0,1.0,1,2/6/2018,35,3.0
Ontario,Niagara Falls,6622 Mcleod Road,-79.104803,43.070295,750000.0,1.0,1,1/6/2018,19,4.0
Ontario,Utterson,316 141 Highway,-79.33229399999998,45.21083,279900.0,1.0,1,7/6/2018,23,3.0
Ontario,Mississauga,152-4950 Albina Way,-79.6487460136905,43.609270266515,659500.0,2.0,1,6/6/2018,18,3.0
Ontario,Scarborough,1210-15 Torrance Rd,-79.2350717,43.740617,349000.0,2.0,1,5/6/2018,15,2.0
Ontario,Brampton,307-30 Malta Ave,-79.72855440000002,43.6566995,399000.0,2.0,1,12/6/2018,6,2.0
Ontario,Etobicoke,2111-2000 Islington Ave,-79.5479308,43.6982421,624900.0,1.0,1,8/6/2018,12,5.0
Ontario,Burlington,2464 Cavendish Drive,-79.83483299999997,43.371389,759900.0,1.0,1,20/6/2018,21,4.0
British Columbia,Victoria,2650 Capital Hts,-123.349675,48.43742,689900.0,2.0,1,13/6/2018,28,2.0
British Columbia,Surrey,204 15388 101 Avenue,-122.7958547,49.1858946,639900.0,2.0,1,15/6/2018,35,2.0
Ontario,Paris,149 B Willow Street,-80.374749,43.202592,749000.0,2.0,1,6/6/2018,34,4.0
Ontario,Gananoque,150 Sydenham St,-76.1601338,44.3290029,419900.0,2.0,1,17/6/2018,30,2.0
Ontario,Toronto,1217-35 Hayden St,-79.3846115,43.6694425,969900.0,2.0,1,6/6/2018,16,2.0
British Columbia,Surrey,401 12739 72 Avenue,-122.868966,49.134771,426800.0,1.0,1,2/6/2018,33,3.0
Ontario,Trenton,36 Third Avenue,-77.593194,44.098662,269900.0,1.0,1,16/6/2018,14,4.0
British Columbia,Chilliwack,12 9470 Hazel Street,-121.939096,49.173813,324700.0,1.0,1,30/6/2018,13,6.0
Ontario,Orléans,2028 Belcourt Boulevard,-75.51434499999998,45.458171,599000.0,2.0,1,21/6/2018,2,2.0
Manitoba,Winnipeg,7 Prychitko Pl,-97.029751,49.893054,384900.0,2.0,1,5/6/2018,39,1.0
Ontario,Oshawa,578 Simcoe St S,-78.8569833,43.88242329999999,359800.0,1.0,1,8/6/2018,12,3.0
British Columbia,Surrey,63 5867 129 Street,-122.8648267,49.1095063,682900.0,2.0,1,8/6/2018,42,2.0
Quebec,Dorval,401-795 Ch. Du Bord-Du-Lac-Lakeshore,-73.739111,45.438936,369000.0,1.0,1,13/6/2018,18,2.0
Ontario,Orléans,177 Soleil Avenue,-75.45970600000003,45.453211,285000.0,2.0,1,7/6/2018,9,2.0
Ontario,Etobicoke,508-5 Michael Power Pl,-79.5285944,43.6443244,499900.0,2.0,1,6/6/2018,24,1.0
Ontario,Waterloo,701-45 Westmount Road N,-80.53918900000002,43.46107,219000.0,1.0,1,23/6/2018,22,3.0
Ontario,Midland,194 Russell Street,-79.882069,44.75474000000001,229777.0,2.0,1,26/6/2018,17,1.0
Manitoba,Grande Pointe,1985 Shady Lane,-97.029758,49.771847,379900.0,1.0,1,15/6/2018,9,4.0
Newfoundland & Labrador,Mount Pearl,18 Fairweather Avenue,-52.807589,47.5106465,289900.0,2.0,1,7/6/2018,41,1.0
British Columbia,Chilliwack,302 45700 Wellington Avenue,-121.9599431,49.1732707,239000.0,1.0,1,30/6/2018,13,2.0
Ontario,Milton,55-165 Hampshire Way,-79.8599061369896,43.5335632851548,529900.0,2.0,1,15/6/2018,20,1.0
British Columbia,Burnaby,1903 6461 Telford Avenue,-123.0040735,49.2251902,649000.0,1.0,1,1/6/2018,35,3.0
British Columbia,Coquitlam,205 1220 Falcon Drive,-122.818016,49.285597,779888.0,2.0,1,21/6/2018,23,2.0
Ontario,Brampton,12 El Camino Way,-79.8330664,43.6947819,829900.0,1.0,1,6/6/2018,14,3.0
Ontario,Goderich,79953 Orchard Line,-81.685158,43.72091,489000.0,1.0,1,26/6/2018,11,3.0
Ontario,Burlington,2206 Manchester Dr,-79.84413909999998,43.3671679,649990.0,1.0,1,15/6/2018,7,2.0
Alberta,Calgary,137 Chaparral Pt Se,-114.036666,50.889783,349900.0,1.0,1,10/6/2018,26,3.0
Ontario,Mississauga,3030 Plum Tree Crt,-79.7681833,43.5846596,779900.0,2.0,1,23/6/2018,15,2.0
British Columbia,Burnaby,909 9266 University Crescent,-122.9043187,49.2791423,689800.0,1.0,1,8/6/2018,18,2.0
Ontario,Embrun,5 Pilon Street,-75.280152,45.276957,359900.0,1.0,1,13/6/2018,13,5.0
Alberta,Edmonton,108 17467 98a Av Nw,-113.6234838,53.5341515,137700.0,1.0,1,28/6/2018,15,4.0
Newfoundland & Labrador,Chapel Cove,294 Point Road,-53.13757800000001,47.433643,73900.0,1.0,1,23/6/2018,13,4.0
Manitoba,Winnipeg,39 Greene Ave,-97.106966,49.934205,374900.0,1.0,1,23/6/2018,11,3.0
Ontario,Ottawa,7 Binbury Way,-75.633564,45.368543,369900.0,1.0,1,8/6/2018,11,4.0
Ontario,London,1261 Nicole Avenue,-81.244236,43.047132,439900.0,1.0,1,5/6/2018,7,3.0
British Columbia,Victoria,2400 Styan Rd,-123.400246,48.560459,829900.0,2.0,1,18/6/2018,15,2.0
Ontario,Echo Bay,"Macdonald, Meredith, Aberdeen Additional Township-99 Findlay Rd",-84.0412342,46.4854921,169500.0,1.0,1,26/6/2018,11,2.0
Alberta,Edmonton,11527 85 St Nw,-113.4715229,53.5666715,176500.0,1.0,1,1/6/2018,13,3.0
Ontario,Tobermory,56 Harpur Drive,-81.658365,45.26054600000001,369000.0,1.0,1,8/6/2018,8,6.0
Ontario,Colborne,12054 County 2 Rd,-77.9463003185811,44.0069014590737,699000.0,1.0,1,12/6/2018,38,5.0
Ontario,North York,60 Dorking Cres,-79.49129079999999,43.729735,949800.0,1.0,1,29/6/2018,22,4.0
Ontario,Acton,169 Longfield Rd,-80.02382159999998,43.6321713,549900.0,1.0,1,19/6/2018,12,3.0
Ontario,Grimsby,6 288 Main Street E,-79.52268199999997,43.184865,699000.0,1.0,1,26/6/2018,25,3.0
British Columbia,Langley,82 9080 198 Street,-122.6710263,49.1674086,147500.0,1.0,1,5/6/2018,9,4.0
Saskatchewan,Saskatoon,2518 Albert Ave,-106.648398,52.098005,325000.0,1.0,1,12/6/2018,22,2.0
British Columbia,Abbotsford,61 31032 Westridge Place,-122.3652585,49.0684966,478888.0,1.0,1,27/6/2018,14,2.0
Ontario,St Williams,31 Bayside Drive,-80.431598,42.641021,249800.0,1.0,1,19/6/2018,15,4.0
Saskatchewan,Regina,3118 Brock By,-104.626382,50.494249,429900.0,2.0,1,2/6/2018,12,2.0
British Columbia,Chilliwack,301 45562 Airport Road,-121.96115666933001,49.1559381770239,364900.0,1.0,1,6/6/2018,24,3.0
Ontario,Hamilton,6 Aiken Street,-79.233921,43.194686,398900.0,1.0,1,5/6/2018,31,4.0
Ontario,Mississauga,3896 Mcdowell Dr,-79.754237,43.5543152,790000.0,1.0,1,24/6/2018,8,3.0
British Columbia,Burnaby,36 9000 Ash Grove Crescent,-122.907305,49.2643194,675000.0,1.0,1,30/6/2018,20,3.0
Manitoba,Winnipeg,345 Larsen Ave,-97.107106,49.915837,150000.0,1.0,1,1/7/2018,21,2.0
Ontario,Goderich,127 Britannia Road W,-81.717187,43.739047,329900.0,1.0,1,5/6/2018,9,4.0
Ontario,Exeter,4 Snider Crescent,-81.502514,43.33759000000001,350000.0,1.0,1,30/6/2018,10,3.0
Ontario,London,550 Second Street 52,-81.192796,43.009808,174900.0,1.0,1,16/6/2018,31,5.0
Ontario,Kitchener,70 Birchcliff Avenue,-80.514702,43.425057,889900.0,1.0,1,5/6/2018,3,0.0
Alberta,Calgary,4607 21 Av Nw,-114.156042,51.073297,449900.0,1.0,1,5/6/2018,2,3.0
Ontario,Tobermory,7378 6 Highway,-81.659912,45.250085,360000.0,1.0,1,12/6/2018,18,4.0
Ontario,Waterloo,325 Arlene Place,-80.496666,43.471708,499900.0,1.0,1,23/6/2018,19,4.0
Ontario,Essex,472 Talbot Road,-82.835815,42.185587,379000.0,1.0,1,15/6/2018,27,4.0
Ontario,Orillia,369 Grenville Ave,-79.4366946,44.5989053,479900.0,2.0,1,30/6/2018,18,3.0
Alberta,Red Deer,17 Lazaro Close,-113.752571,52.23957,650000.0,1.0,1,19/6/2018,21,3.0
Ontario,Lisle,2450 Irish Line,-79.6462202,44.7954208,749000.0,1.0,1,5/6/2018,10,3.0
Ontario,Newmarket,597 Red Deer St,-79.45450799999998,44.0663,419900.0,2.0,1,1/6/2018,8,2.0
Ontario,Scarborough,407-88 Alton Towers Circ,-79.274493,43.82482589999999,349500.0,1.0,1,2/6/2018,12,3.0
Ontario,Sarnia,1875 Dent Drive,-82.311441,43.023847,384900.0,2.0,1,7/6/2018,13,1.0
British Columbia,Vancouver,2010 3663 Crowley Drive,-123.0271051,49.2353958,568000.0,2.0,1,20/6/2018,22,2.0
British Columbia,New Westminster,116 707 Eighth Street,-122.9256795,49.2128809,399900.0,1.0,1,8/6/2018,28,3.0
Ontario,Orléans,1520 Rumford Drive,-75.473282,45.474289,419900.0,1.0,1,29/6/2018,16,2.0
British Columbia,Chilliwack,33 8533 Broadway Street,-121.935329,49.1570069,419900.0,1.0,1,13/6/2018,27,3.0
Alberta,Red Deer,9 Lowden Close,-113.7507926,52.2392555,384900.0,1.0,1,21/6/2018,32,2.0
British Columbia,New Westminster,62 620 Queens Avenue,-122.9128798,49.2064375,628000.0,1.0,1,6/6/2018,9,3.0
British Columbia,Campbell River,2-768 Robron Road,-125.245698,49.995007,224500.0,1.0,1,15/6/2018,26,2.0
Alberta,Onoway,5089 4 Street,-114.217867297974,53.8815488141834,63500.0,2.0,1,10/6/2018,9,5.0
Ontario,Windsor,3163 Erindale,-82.98751999999998,42.280234,144900.0,1.0,1,6/6/2018,6,3.0
Ontario,Burlington,2360 Shropshire Place,-79.836727,43.37125800000001,619900.0,2.0,1,15/6/2018,3,2.0
Ontario,Scarborough,2504-50 Town Centre Crt,-79.2552731,43.773249,438000.0,1.0,1,5/6/2018,36,4.0
Ontario,Barrie,17 Steel Street,-79.673286,44.402529,445000.0,1.0,1,15/6/2018,12,3.0
Ontario,Guelph,219-26 Ontario Street,-80.239879,43.54474,329900.0,2.0,1,12/6/2018,10,1.0
Alberta,Edmonton,7820 Summerside Grande Bv Sw,-113.4577273,53.417821,485000.0,1.0,1,10/6/2018,18,5.0
Alberta,Edmonton,7820 Summerside Grande Bv Sw,-113.4577273,53.417821,485000.0,1.0,1,10/6/2018,18,3.0
Ontario,Winchester,436 Main Street W,-75.348775,45.094888,217700.0,2.0,1,28/6/2018,23,1.0
Quebec,Saint-Eustache,302-931 Rue Des Cerisiers,-73.93016759,45.58629507,149900.0,1.0,1,5/6/2018,18,3.0
British Columbia,Parksville,637 Ashcroft Place,-124.347261,49.334653,719000.0,1.0,1,22/6/2018,28,3.0
Ontario,Oakville,1303 Warwick Avenue,-79.708486,43.423334,900000.0,1.0,1,1/6/2018,14,3.0
Quebec,Lévis,6760 Rue Des Myosotis,-71.26301508,46.7215299,237000.0,1.0,1,17/6/2018,7,3.0
Ontario,Scarborough,65 Magnolia Ave,-79.25516929999998,43.7221443,719900.0,1.0,1,2/6/2018,7,3.0
British Columbia,Richmond,21 6033 Williams Road,-123.1580713,49.1411117,898000.0,1.0,1,22/6/2018,13,2.0
Ontario,Tweed,151 Stoco Rd,-77.2754786,44.4625948,275000.0,1.0,1,3/6/2018,26,2.0
British Columbia,Victoria,4374 Torrington Pl,-123.326879,48.485139,875000.0,2.0,1,6/6/2018,43,3.0
Ontario,North York,406-100 Harrison Garden Blvd,-79.4045838,43.756899,728888.0,1.0,1,6/6/2018,17,6.0
Ontario,Brampton,32 Sheringham St,-79.78580500000002,43.716232,829900.0,1.0,1,12/6/2018,17,3.0
British Columbia,Lake Cowichan,10-215 Madill Road,-124.045471,48.833353,209000.0,1.0,1,8/6/2018,18,2.0
British Columbia,Nanaimo,1-1000 Chase River Road,-123.922569,49.137869,69000.0,1.0,1,19/6/2018,10,3.0
Ontario,Kanata,303 Livery Street,-75.891696,45.274497,409900.0,2.0,1,5/6/2018,9,2.0
British Columbia,Powell River,4094 Whalen Ave,-124.524307,49.82656400000001,398800.0,2.0,1,7/6/2018,20,2.0
Ontario,Carleton Place,191 Henry Street,-76.131975,45.136214,339000.0,1.0,1,14/6/2018,17,3.0
Ontario,Eden,10060 Plank Road,-80.76629399999999,42.762347,429900.0,1.0,1,29/6/2018,14,4.0
Ontario,Guelph,61-63 College Ave W,-80.2369138,43.5291706,779000.0,1.0,1,21/6/2018,26,3.0
British Columbia,Port Coquitlam,13 3384 Coast Meridian Road,-122.755323,49.273312,560000.0,2.0,1,15/6/2018,13,2.0
British Columbia,North Vancouver,213 175 E 10th Street,-123.0694752,49.3168059,729000.0,2.0,1,16/6/2018,31,2.0
Ontario,Ottawa,80 Greenfield Avenue Unit8,-75.678416,45.416683,362000.0,1.0,1,9/6/2018,20,3.0
Ontario,Milton,366 Leitch Landing,-79.889801,43.496106,815000.0,1.0,1,14/6/2018,36,4.0
Ontario,Brampton,100 Truro Circ,-79.85786819772329,43.7003756955264,798800.0,1.0,1,1/7/2018,22,3.0
Ontario,Toronto,1640 Gerrard St E,-79.3196068,43.675937,739900.0,1.0,1,11/6/2018,8,4.0
Ontario,Tiny,31 Albert Avenue,-79.991497,44.694794,249900.0,1.0,1,16/6/2018,23,3.0
Ontario,Belleville,24 Church Street S 32,-77.377884,44.157942,649900.0,1.0,1,16/6/2018,34,5.0
Ontario,Mulmur,4 Lloyd'S Traverse Cres,-80.05817440000001,44.1953898,649900.0,1.0,1,21/6/2018,30,3.0
Ontario,York,516 Northcliffe Blvd,-79.44570999999998,43.68965220000001,769900.0,1.0,1,1/6/2018,5,4.0
Ontario,York,516 Northcliffe Blvd,-79.44570999999998,43.68965220000001,769900.0,2.0,1,1/6/2018,5,1.0
Ontario,North York,820-120 Harrison Garden Blvd,-79.4031651,43.7580713,395000.0,1.0,1,13/6/2018,29,3.0
Ontario,London,111 Walmer Gardens,-81.283589,42.993384000000006,379000.0,1.0,1,3/6/2018,6,3.0
Ontario,Toronto,157 1/2 Tyrrel Ave,-79.4282139837742,43.6772156759958,929000.0,2.0,1,6/6/2018,7,1.0
British Columbia,Coquitlam,200 958 Ridgeway Avenue,-122.8686807,49.24955300000001,519900.0,1.0,1,1/6/2018,15,2.0
Alberta,Hillcrest Mines,629 227 Street,-114.37982,49.570341,168800.0,1.0,1,2/6/2018,14,4.0
Ontario,Oakville,10-1570 Reeves Gate,-79.7493342,43.4306888,565000.0,1.0,1,9/6/2018,13,3.0
Ontario,Smiths Falls,11411 Highway 15,-76.20328719999998,44.6879254,399000.0,1.0,1,9/6/2018,27,3.0
Nova Scotia,Lawrencetown,37 Robinson Road,-63.4245579,44.68933970000001,209000.0,2.0,1,10/6/2018,17,3.0
Ontario,Mississauga,1206-350 Webb Dr,-79.64200859999998,43.5846035,398000.0,2.0,1,15/6/2018,1,1.0
Ontario,South Porcupine,78 Cecil Ave,-81.2111465,48.4838711,119900.0,2.0,1,12/6/2018,24,3.0
Ontario,North York,Ph03-2015 Sheppard Ave E,-79.3374816,43.7754238,599000.0,1.0,1,12/6/2018,10,3.0
Ontario,Mississauga,14-5535 Glen Erin Dr,-79.72778000000002,43.5655749,797000.0,1.0,1,5/6/2018,11,3.0
Alberta,Calgary,14 Simcoe Tc Sw,-114.18167,51.036146,619900.0,1.0,1,14/6/2018,37,5.0
Ontario,Grimsby,26 Elm Street,-79.56212,43.192146,528500.0,1.0,1,9/6/2018,11,3.0
Ontario,Richmond Hill,107 Lacewood Dr,-79.4470172,43.903118,699000.0,2.0,1,6/6/2018,15,2.0
Quebec,Montréal,6238 Rue Boyer,-73.599814,45.535789,318000.0,2.0,1,1/6/2018,30,1.0
British Columbia,Chilliwack,203 45598 Mcintosh Drive,-121.962288,49.161102,173500.0,1.0,1,2/6/2018,28,0.0
Ontario,Grimsby,394 Murray Street,-79.563201,43.202198,489900.0,1.0,1,14/6/2018,22,4.0
Ontario,Scarborough,62-1131 Sandhurst Circ,-79.2670879,43.8113322,585000.0,1.0,1,2/6/2018,10,3.0
Ontario,Sarnia,161 Bedford Crescent,-82.36291999999997,42.964752,129900.0,1.0,1,22/6/2018,7,2.0
Ontario,Petawawa,69 Pinehurst Estates Street,-77.28608,45.89905,54500.0,1.0,1,20/6/2018,32,3.0
Ontario,Hamilton,587 John Street N,-79.85876800000003,43.273932,349900.0,2.0,1,12/6/2018,3,1.0
Manitoba,Neepawa,26 Manawaka Dr,-99.457667,50.2197,319500.0,2.0,1,5/6/2018,44,2.0
British Columbia,Victoria,104-364 Goldstream Ave,-123.475277,48.443847,350000.0,1.0,1,14/6/2018,21,3.0
Ontario,Stittsville,71 Whalings Circle,-75.943995,45.26110300000001,324900.0,2.0,1,16/6/2018,11,2.0
Ontario,Mississauga,2401-550 Webb Drive,-79.64567199999998,43.581375,454900.0,1.0,1,8/6/2018,35,3.0
Ontario,Mississauga,6367 Amber Glen Dr,-79.7681338,43.5630309,645000.0,1.0,1,16/6/2018,8,3.0
Alberta,Calgary,292 Tuscany Estates Ri Nw,-114.254408,51.111261,824900.0,1.0,1,2/6/2018,10,3.0
Alberta,Calgary,292 Tuscany Estates Ri Nw,-114.254408,51.111261,824900.0,1.0,1,2/6/2018,10,3.0
Ontario,London,662 Hickorystick Key,-81.308774,43.022381,989900.0,1.0,1,15/6/2018,19,5.0
Ontario,London,662 Hickorystick Key,-81.308774,43.022381,989900.0,1.0,1,15/6/2018,19,4.0
Ontario,Burlington,641 Sheraton Road,-79.75793,43.374536,829000.0,1.0,1,30/6/2018,21,3.0
Ontario,Listowel,785 Binning Street W,-80.960638,43.738422,299900.0,1.0,1,5/6/2018,8,6.0
Alberta,Calgary,18 Glenfield Rd Sw,-114.154094,51.032346,800000.0,1.0,1,1/6/2018,3,2.0
Ontario,Kemble,319732 Kemble Rock Road,-80.93055,44.707146,230000.0,1.0,1,1/6/2018,11,2.0
Ontario,Hamilton,21 Grandoaks Drive,-79.855151,43.216205,769900.0,1.0,1,16/6/2018,19,3.0
Ontario,Scarborough,3 Moraine Hill Dr,-79.2978964,43.7742486,918900.0,1.0,1,22/6/2018,25,4.0
Nova Scotia,Enfield,116 Thomas Street,-63.543063,44.994923,274900.0,1.0,1,1/6/2018,35,4.0
Ontario,Kingston,759 Kananaskis Drive,-76.6272731,44.2690834,664900.0,2.0,1,7/6/2018,21,2.0
Manitoba,Arnes,22 Cole Blvd,-96.981473,50.759698,189900.0,1.0,1,5/6/2018,25,4.0
British Columbia,Chilliwack,46484 Riverside Drive,-121.9386493,49.1805304,509900.0,1.0,1,30/6/2018,18,3.0
Ontario,Aurora,49 Steckley St,-79.45240809999999,44.0130028,715000.0,1.0,1,8/6/2018,9,3.0
Ontario,Caledon,33 Maple Trail Rd,-79.8409992456436,43.750655933317006,697000.0,1.0,1,5/6/2018,24,4.0
Ontario,Hamilton,60 Elmore Drive,-79.85225200000002,43.200788,549333.0,2.0,1,8/6/2018,34,3.0
Ontario,Toronto,1609-81 Navy Wharf Crt,-79.3914457,43.641365500000006,730000.0,1.0,1,3/6/2018,11,3.0
British Columbia,Aldergrove,101 27111 0 Avenue,-122.4736231,49.0024494,299500.0,2.0,1,14/6/2018,34,2.0
British Columbia,New Westminster,704 258 Sixth Street,-122.91480020000002,49.2083809,499000.0,2.0,1,1/6/2018,27,1.0
Ontario,Markham,26 Innisvale Dr,-79.2391839,43.9005586,729000.0,1.0,1,13/6/2018,6,3.0
British Columbia,Trail,184 Rossland Avenue,-117.723822,49.099135,229000.0,2.0,1,5/6/2018,16,5.0
Alberta,Grande Prairie,11813 87 Street,-118.753744,55.18711999999999,359900.0,1.0,1,6/6/2018,42,3.0
Ontario,Kingston,Unit 51-115 Wright Crescent,-76.5146275,44.23929879999999,279900.0,2.0,1,12/6/2018,22,1.0
Ontario,Guelph,413-1229 Victoria Rd S,-80.1720504,43.5137394,503900.0,1.0,1,2/6/2018,39,4.0
Ontario,Thorold,24 Success Way,-79.191225,43.093605,549900.0,1.0,1,2/6/2018,42,3.0
Ontario,Burlington,601-1940 Ironstone Drive,-79.78845600000002,43.393044,384900.0,2.0,1,7/6/2018,16,2.0
Ontario,London,45 Pond Mills Road 1406,-81.2067,42.9712,139900.0,2.0,1,6/6/2018,29,3.0
Ontario,Toronto,717-230 Queens Quay,-79.3837757,43.6397444,799900.0,1.0,1,6/6/2018,9,3.0
Ontario,Acton,33 Dairy Dr,-80.0462993,43.635599600000006,499900.0,2.0,1,1/6/2018,8,2.0
Ontario,Windsor,5151 Riverside Drive East Unit 1002,-82.976472,42.329681,449900.0,1.0,1,2/6/2018,5,3.0
Manitoba,Winnipeg,3219 Grant Ave,-97.25539,49.858648,255000.0,2.0,1,7/6/2018,40,2.0
British Columbia,Burnaby,1503 2077 Rosser Avenue,-123.0062008,49.2657573,889900.0,1.0,1,28/6/2018,13,2.0
Manitoba,Morden,415 10th St,-98.105596,49.197257,144500.0,2.0,1,9/6/2018,14,2.0
Ontario,Toronto,330 169 Fort York Boulevard,-79.401045,43.63842,540000.0,1.0,1,28/6/2018,2,3.0
Ontario,Ancaster,174 Irwin Avenue,-79.94179399999999,43.212414,908000.0,1.0,1,15/6/2018,25,3.0
Ontario,North Bay,30 Portage Avenue,-79.440202,46.283499,249000.0,2.0,1,30/6/2018,14,2.0
British Columbia,Port Moody,306 801 Klahanie Drive,-122.8331001,49.279976,588000.0,1.0,1,7/6/2018,37,4.0
Saskatchewan,Saskatoon,1006 Rempel Way,-106.610788,52.085985,454900.0,1.0,1,30/6/2018,20,4.0
Ontario,Ajax,31 Feint Dr,-79.0397642,43.89230739999999,724900.0,2.0,1,1/6/2018,12,3.0
Ontario,Toronto,715-60 Berwick Ave,-79.4001593,43.7046285,719000.0,1.0,1,8/6/2018,13,3.0
Nova Scotia,Goldboro,11641 Highway 16,-61.6023673,45.1499816,104900.0,2.0,1,2/6/2018,35,2.0
Ontario,Owen Sound,51 Lamson Crescent,-80.920888,44.569618,172000.0,1.0,1,2/6/2018,24,5.0
Alberta,St. Albert,21 Eastwood Pl,-113.6284646,53.6622169,409900.0,1.0,1,6/6/2018,8,4.0
Alberta,St. Albert,21 Eastwood Pl,-113.6284646,53.6622169,409900.0,2.0,1,6/6/2018,8,2.0
Ontario,Burlington,806 551 Maple Avenue,-79.807331,43.3221,695000.0,2.0,1,1/6/2018,13,1.0
New Brunswick,Gray Rapids,955 Route 118,-65.756548,46.774205,159900.0,1.0,1,7/6/2018,1,3.0
Quebec,Montréal,9192-9194 2e Avenue,-73.632703,45.569564,369900.0,2.0,1,2/6/2018,47,2.0
British Columbia,Vancouver,206 2175 Salal Drive,-123.1545067,49.2616995,938000.0,2.0,1,17/6/2018,17,2.0
Ontario,Toronto,1211-28 Ted Rogers Way,-79.3805814,43.6705467,718000.0,1.0,1,8/6/2018,42,2.0
Ontario,Burlington,2-4280 Taywood Dr,-79.8073834,43.4006566,969000.0,1.0,1,15/6/2018,19,4.0
Ontario,St Catharines,645 Vine Street,-79.23223399999998,43.211936,609900.0,1.0,1,1/6/2018,12,4.0
Ontario,Waterloo,101b Northlake Place,-80.551843,43.495717,349900.0,2.0,1,12/6/2018,6,3.0
Quebec,Verdun,4001 Rue Gertrude,-73.56924408,45.46342412,365000.0,1.0,1,27/6/2018,20,5.0
Ontario,Mississauga,3171 Avalon Dr,-79.778733,43.5869136,929900.0,1.0,1,23/6/2018,21,5.0
Alberta,St. Albert,17 Everitt Dr,-113.6208368,53.6681198,529900.0,2.0,1,2/6/2018,37,3.0
Ontario,Toronto,109-480 Oriole Pkwy,-79.4061083,43.7040652,649900.0,1.0,1,7/6/2018,7,3.0
Ontario,Burlington,11-2385 Woodward Ave,-79.7937225,43.3407445,514900.0,1.0,1,8/6/2018,33,1.0
British Columbia,Vancouver,428 Helmcken Street,-123.1217072,49.2763275,1188000.0,1.0,1,23/6/2018,18,3.0
Manitoba,St Andrews,6608 Highway 9 . Hwy,-96.942782,50.135763,329900.0,1.0,1,2/6/2018,14,4.0
Ontario,St Catharines,234 Grantham Avenue,-79.220543,43.17537700000001,249999.99,1.0,1,18/6/2018,4,3.0
Ontario,Barrie,58 Strabane Ave,-79.669264,44.400216,539900.0,1.0,1,7/6/2018,29,3.0
Ontario,North York,905-18 Valley Woods Rd,-79.3329546,43.7524335,449900.0,2.0,1,6/6/2018,24,2.0
Ontario,Toronto,701-38 Joe Shuster Way,-79.4244113,43.6405289,449000.0,2.0,1,17/6/2018,5,5.0
Ontario,Toronto,701-38 Joe Shuster Way,-79.4244113,43.6405289,449000.0,1.0,1,17/6/2018,5,4.0
Ontario,Brampton,164 Clarence St,-79.7433056,43.6884912,599900.0,1.0,1,14/6/2018,30,4.0
Quebec,Longueuil,1642-1646 Rue Marmier,-73.493871,45.52183,665000.0,1.0,1,12/6/2018,31,3.0
Ontario,Ingersoll,9 Winders Trail,-80.86105699999997,43.039679,459900.0,1.0,1,14/6/2018,21,3.0
Alberta,Edmonton,3319 Weidle Wy Sw,-113.4405179,53.413339,389900.0,1.0,1,23/6/2018,28,3.0
Ontario,Brampton,204-45 Yorkland Blvd,-79.68915909999998,43.7593023,398000.0,2.0,1,1/6/2018,11,2.0
British Columbia,Victoria,316-1145 Sikorsky Rd,-123.531296,48.443142,485000.0,2.0,1,1/6/2018,14,2.0
Ontario,Brampton,71 Woodward Ave,-79.7562631,43.6972917,728800.0,2.0,1,7/6/2018,6,2.0
Ontario,Lavigne,21 Trottier Road,-80.177128,46.308563,283900.0,1.0,1,8/6/2018,36,3.0
Quebec,Sainte-Thérèse-De-La-Gatineau,37 Ch. Du Lac-Marcelin,-75.86783528,46.27140159,85000.0,2.0,1,1/6/2018,30,1.0
Ontario,Scarborough,1609-255 Village Green Sq,-79.366969,43.650842,358000.0,2.0,1,6/6/2018,23,1.0
Manitoba,Winnipeg,116 Gilia Dr,-97.148044,49.949269,264900.0,2.0,1,2/6/2018,7,3.0
Ontario,Richmond Hill,203-9088 Yonge St,-79.43253979999999,43.848575,769000.0,1.0,1,14/6/2018,38,5.0
Ontario,Scarborough,247b Mcintosh St,-79.2495318,43.7113467,999000.0,1.0,1,6/6/2018,8,4.0
Ontario,Markham,51 Kincaid Lane,-79.25445970000001,43.8453268,698000.0,1.0,1,11/6/2018,18,3.0
British Columbia,Chilliwack,6538 Iron Street,-121.9530722,49.120247226106216,769900.0,1.0,1,6/6/2018,17,3.0
Ontario,Toronto,25 Glebeholme Blvd,-79.33719649999998,43.6829425,899000.0,1.0,1,1/6/2018,7,4.0
Ontario,Oshawa,2432 Equestrian Cres,-78.911367058754,43.9552858394089,699900.0,1.0,1,6/6/2018,15,4.0
British Columbia,Richmond,707 7575 Alderbridge Way,-123.1445269,49.1736419,748800.0,2.0,1,1/6/2018,15,2.0
Ontario,Toronto,3402-88 Blue Jays Way,-79.3924571,43.6455046,699000.0,1.0,1,16/6/2018,7,4.0
British Columbia,Mission,34573 Dewdney Trunk Road,-122.2674698,49.1601554,699000.0,1.0,1,30/6/2018,12,4.0
Alberta,Edmonton,5212 104 Av Nw,-113.4206308,53.5467122,389800.0,1.0,1,16/6/2018,10,7.0
Ontario,North York,810-28 Avondale Ave,-79.408622,43.7588578,449900.0,1.0,1,2/6/2018,18,2.0
Manitoba,Winnipeg,293 St. Mary'S Rd,-97.115478,49.873373,199900.0,1.0,1,13/6/2018,15,3.0
Ontario,North York,305-181 Wynford Dr,-79.32863470000002,43.7250061,628888.0,2.0,1,4/6/2018,32,1.0
Quebec,Côte Saint-Luc,660 Av. Westluke,-73.66606999999998,45.457232,410000.0,2.0,1,2/6/2018,29,2.0
British Columbia,Burnaby,2802 9868 Cameron Street,-122.8944169,49.2529665,715000.0,1.0,1,14/6/2018,34,3.0
Quebec,Laval,119 Rue Baron,-73.757279,45.648725,339900.0,1.0,1,29/6/2018,12,4.0
Alberta,St. Albert,21 Donlevy Pl,-113.6375213,53.65404640000001,364900.0,1.0,1,24/6/2018,12,3.0
British Columbia,Kimberley,74 Ross A Street,-115.986119,49.685977,160000.0,2.0,1,1/6/2018,35,3.0
Ontario,Etobicoke,1011-716 The West Mall Dr,-79.5702403,43.65649570000001,419888.0,2.0,1,9/6/2018,11,1.0
Ontario,Richmond Hill,Lph105-9017 Leslie St,-79.3802567,43.8476722,659000.0,2.0,1,5/6/2018,24,2.0
British Columbia,Delta,304 1375 View Crescent,-123.068006,49.027882,539900.0,2.0,1,7/6/2018,42,2.0
Ontario,Etobicoke,1857-25 Viking Lane,-79.53674000000002,43.638682,518000.0,1.0,1,14/6/2018,14,3.0
Ontario,Carrying Place,1249 Burnbrae Road E,-77.788379,44.301507,369900.0,1.0,1,20/6/2018,20,3.0
Alberta,Stettler,6003 54 Avenue Close,-112.725999,52.33015,239900.0,2.0,1,26/6/2018,17,2.0
British Columbia,Coquitlam,306 1180 Pinetree Way,-122.7939778,49.28153320000001,598800.0,1.0,1,7/6/2018,14,5.0
Ontario,Mississauga,1046 Johnathan Dr,-79.58117309999999,43.59420460000001,1075000.0,1.0,1,15/6/2018,20,5.0
Ontario,Toronto,808-119 Merton St,-79.3920888,43.6966701,539900.0,2.0,1,20/6/2018,7,2.0
Ontario,Toronto,808-119 Merton St,-79.3920888,43.6966701,539900.0,1.0,1,20/6/2018,7,3.0
Ontario,Guelph,19-32 Arkell Rd,-80.19868670000002,43.5146209,499500.0,1.0,1,27/6/2018,15,2.0
Ontario,Mississauga,89-6950 Tenth Line,-79.7761216,43.5830385,409900.0,1.0,1,28/6/2018,24,3.0
Ontario,Nepean,762 Cobble Hill Drive,-75.774907,45.264331,379900.0,2.0,1,21/6/2018,23,2.0
Quebec,Deux-Montagnes,4-808 Rue Rockland,-73.88705578,45.53737422,145000.0,2.0,1,20/6/2018,29,3.0
Ontario,Thunder Bay,331 Pearl St,-89.22791099999998,48.4355509,169000.0,1.0,1,27/6/2018,22,4.0
Ontario,Mooretown,72 St James Street,-82.464123,42.838872,329900.0,1.0,1,5/6/2018,4,3.0
Ontario,Cambridge,19 Mckay Street,-80.30711,43.34982,329900.0,2.0,1,8/6/2018,5,2.0
British Columbia,Richmond,315 5500 Cooney Road,-123.1312644,49.1727261,398000.0,2.0,1,27/6/2018,23,3.0
Ontario,Mississauga,3002-3515 Kariya Dr,-79.6309547,43.5890166,475000.0,1.0,1,20/6/2018,16,7.0
Ontario,Orléans,481 Canotia Place,-75.494496,45.475585,180000.0,1.0,1,22/6/2018,1,6.0
Ontario,Windsor,3010 Donnelly,-83.070782,42.303399,259900.0,1.0,1,16/6/2018,11,4.0
Ontario,Newmarket,222 Savage Rd,-79.468008,44.029522,890000.0,1.0,1,14/6/2018,12,2.0
Ontario,Sarnia,1214 Exmouth Street,-82.364811,42.985143,159900.0,1.0,1,1/6/2018,4,5.0
British Columbia,Surrey,6338 173a Street,-122.7420602,49.117838,825000.0,2.0,1,14/6/2018,16,1.0
Ontario,Sharbot Lake,1932 Shibley Road,-76.662995,44.755155,1189000.0,1.0,1,12/6/2018,17,3.0
Quebec,Pincourt,157 5e Avenue,-73.98387882,45.38404923,249900.0,2.0,1,18/6/2018,29,1.0
Ontario,North York,2606-4978 Yonge St,-79.4125865,43.7655809,599000.0,2.0,1,26/6/2018,14,3.0
Ontario,North York,2606-4978 Yonge St,-79.4125865,43.7655809,599000.0,1.0,1,26/6/2018,14,2.0
Ontario,Petrolia,4760 Wanstead Road,-82.054161,42.914583,479950.0,1.0,1,4/6/2018,10,4.0
Ontario,North York,326-100 Harrison Garden Blvd,-79.4045838,43.756899,569000.0,2.0,1,2/6/2018,48,2.0
Ontario,North York,326-100 Harrison Garden Blvd,-79.4045838,43.756899,569000.0,1.0,1,2/6/2018,48,3.0
Ontario,Brantford,C-656 Grey Street,-80.21386700000002,43.148632,264900.0,1.0,1,15/6/2018,9,3.0
Ontario,Collingwood,12 Silver Crescent,-80.181529,44.497103,619000.0,1.0,1,1/6/2018,6,2.0
Ontario,Smiths Falls,179 Harold Street,-76.024885,44.886841,336000.0,1.0,1,1/6/2018,39,6.0
Ontario,Scarborough,6 Kenfin Ave,-79.2950856,43.8002282,649000.0,2.0,1,5/6/2018,17,2.0
British Columbia,Vancouver,410 3581 Ross Drive,-123.2340949,49.250913,999000.0,1.0,1,15/6/2018,36,4.0
Manitoba,Winnipeg,327 Belvidere St,-97.232653,49.882564,234999.0,2.0,1,22/6/2018,13,1.0
British Columbia,North Vancouver,312 140 E 4 Street,-123.0747482,49.3137508,530000.0,1.0,1,9/6/2018,26,3.0
Ontario,Burlington,1458 Epping Road,-79.811272,43.370506,579000.0,2.0,1,12/6/2018,10,2.0
British Columbia,Maple Ridge,409 12310 222 Street,-122.6069742,49.225743,378800.0,2.0,1,8/6/2018,18,2.0
Ontario,Oshawa,681 Athol St E,-78.83891690000002,43.90170429999999,399000.0,1.0,1,6/6/2018,14,2.0
British Columbia,Cobble Hill,51-1751 Northgate Road,-123.62297,48.675462,86000.0,2.0,1,2/6/2018,11,1.0
Ontario,Penetanguishene,1506 Tiny Beaches Rd N,-80.1049265,44.7447274,729900.0,2.0,1,22/6/2018,8,2.0
Ontario,Mississauga,1005-25 Trailwood Dr,-79.660728,43.61313300000001,364999.0,1.0,1,15/6/2018,20,4.0
Ontario,North York,211-39 Pemberton Ave,-79.41293420000002,43.7808526,539888.0,2.0,1,8/6/2018,21,5.0
Alberta,Grande Prairie,12117 103b Street,-118.807223,55.19058618,405000.0,1.0,1,26/6/2018,8,2.0
Ontario,Minesing,1221 26 Highway,-79.75080200000002,44.44412,489900.0,1.0,1,29/6/2018,21,3.0
Ontario,Minesing,1221 26 Highway,-79.75080200000002,44.44412,489900.0,2.0,1,29/6/2018,21,2.0
Ontario,Ottawa,470 Laurier Avenue Unit1409,-75.704223,45.416325,299900.0,1.0,1,15/6/2018,15,3.0
Ontario,Huntsville,232 Gun Club Road,-79.272354,45.29467,249900.0,2.0,1,23/6/2018,3,4.0
Ontario,Toronto,1912-50 Lynn Williams St,-79.4152434,43.63931820000001,525000.0,2.0,1,15/6/2018,15,2.0
Ontario,Toronto,1912-50 Lynn Williams St,-79.4152434,43.63931820000001,525000.0,2.0,1,15/6/2018,15,2.0
British Columbia,Port Moody,1902 200 Newport Drive,-122.8272628,49.2816442,749000.0,2.0,1,9/6/2018,41,1.0
Ontario,Woodstock,1074 Cree Ave,-80.73297159999998,43.1488069,244900.0,1.0,1,8/6/2018,35,4.0
Ontario,Cambridge,108 Timber Creek Crescent,-80.295301,43.374527,589900.0,1.0,1,8/6/2018,4,3.0
Ontario,Gloucester,142 Jersey Tea Circle,-75.677049,45.279269,369900.0,1.0,1,1/6/2018,11,2.0
British Columbia,Surrey,180 1840 160 Street,-122.77918,49.035181,99900.0,1.0,1,15/6/2018,12,4.0
Ontario,Cambridge,91 South St,-80.3045314,43.3513689,399900.0,1.0,1,22/6/2018,7,5.0
Manitoba,Winnipeg,91 Arlington St,-97.169631,49.880539,289900.0,2.0,1,7/6/2018,30,5.0
Quebec,Montréal,3297 Av. Van Horne,-73.63031855,45.50336674,459000.0,1.0,1,16/6/2018,21,4.0
Ontario,Dundas,23 Ridgewood Boulevard,-79.991435,43.254524,659000.0,2.0,1,28/6/2018,16,1.0
Ontario,Markham,218-35 Via Rosedale Way,-79.7766527,43.7450904,359000.0,1.0,1,5/6/2018,23,4.0
Ontario,Etobicoke,8-150 Carsbrooke Rd,-79.57294300000002,43.652137,563000.0,1.0,1,13/6/2018,29,3.0
Ontario,St Clements,14 Rhine Meadow Road,-80.617398,43.528504,869000.0,1.0,1,26/6/2018,3,3.0
Ontario,Cameron,121 Southview Dr,-78.7416011,44.4470614,269900.0,1.0,1,8/6/2018,4,3.0
Ontario,York,12 Arthur St,-79.5078441,43.6971584,529000.0,1.0,1,26/6/2018,11,3.0
Saskatchewan,Prince Albert,612 6th St E,-105.736366,53.207661,149900.0,1.0,1,1/6/2018,26,5.0
Ontario,Cambridge,1092 Brantford Highway,-80.31395,43.33152000000001,589900.0,1.0,1,28/6/2018,7,6.0
Alberta,Edmonton,6226 Southesk Ld Nw,-113.5837412,53.4403649,789900.0,2.0,1,1/6/2018,15,5.0
Alberta,Calgary,9 Chaparral Ridge Tc Se,-114.023417,50.886233,299000.0,1.0,1,3/6/2018,18,3.0
Ontario,London,42 Beechmount Cres,-81.2268878,42.937908,299900.0,2.0,1,2/6/2018,19,3.0
Ontario,Toronto,1403-318 King St E,-79.3637223,43.6525725,719000.0,2.0,1,5/6/2018,2,2.0
Ontario,Toronto,1403-318 King St E,-79.3637223,43.6525725,719000.0,1.0,1,5/6/2018,2,4.0
British Columbia,Prince George,3306 Austin Rd E,-122.782301,53.99035600000001,419000.0,2.0,1,25/6/2018,13,6.0
Ontario,Windsor,1503 Dobrich,-83.035471,42.279249,249000.0,2.0,1,30/6/2018,12,1.0
Manitoba,Winnipeg,408 35 Valhalla Dr,-97.086888,49.949245,179900.0,2.0,1,17/6/2018,20,3.0
Ontario,Nepean,54 Cymbeline Drive,-75.83466,45.3189,285900.0,2.0,1,29/6/2018,15,2.0
Ontario,Toronto,701-25 Scrivener Sq,-79.3894335,43.6807098,649000.0,2.0,1,26/6/2018,3,3.0
Ontario,Toronto,701-25 Scrivener Sq,-79.3894335,43.6807098,649000.0,1.0,1,26/6/2018,3,2.0
British Columbia,Nanaimo,776 Park Ave,-123.943196,49.148317,839900.0,2.0,1,12/6/2018,23,1.0
Ontario,Mississauga,Lph1-4065 Brickstone Mews,-79.6471487,43.585935600000006,405900.0,1.0,1,23/6/2018,24,3.0
Ontario,Waterdown,51 Chatsworth Crescent,-79.91776800000002,43.324581,629900.0,1.0,1,1/6/2018,18,4.0
Ontario,Oshawa,1794 Grandview St N,-78.84250209999998,43.948292,699000.0,2.0,1,14/6/2018,15,2.0
Ontario,Fenelon Falls,1 Gardiner Shore Ave,-78.77282290000002,44.52359379999999,525000.0,1.0,1,13/6/2018,39,4.0
Ontario,Tottenham,1990 Adjala Tecumseth Twn Line,-79.8450483,44.0204394,797000.0,1.0,1,13/6/2018,39,4.0
New Brunswick,Black River,16 Bayview Road,-65.792652,45.264895,179900.0,1.0,1,7/6/2018,21,2.0
Manitoba,Winnipeg,14 Hastings Blvd,-97.113157,49.838288,224900.0,1.0,1,26/6/2018,24,4.0
Saskatchewan,Emerald Park,319 Emerald Park Rd,-104.389841,50.437799,634900.0,1.0,1,7/6/2018,33,4.0
Ontario,Scarborough,816-2550 Lawrence Ave,-79.2663882,43.7517446,399000.0,2.0,1,14/6/2018,38,2.0
Ontario,Mississauga,1530 Ogden Avenue,-79.573523,43.587511,829900.0,2.0,1,20/6/2018,31,2.0
Saskatchewan,Saskatoon,226 113th St W,-106.605419,52.14190900000001,299000.0,1.0,1,1/6/2018,11,2.0
Alberta,Camrose,5232 48 Street,-112.82242,53.026769,164500.0,2.0,1,5/6/2018,17,2.0
Newfoundland & Labrador,Paradise,26 Hampton Place,-52.893013,47.527205,449000.0,1.0,1,16/6/2018,31,4.0
Ontario,Stoney Creek,192 Palacebeach Tr,-79.6756431,43.2288726,919900.0,1.0,1,9/6/2018,28,2.0
Ontario,Windsor,861 Ellrose,-82.981018,42.324409,124900.0,1.0,1,7/6/2018,27,3.0
Ontario,Pickering,478 Mahogany Crt,-79.13657890000002,43.8384702,739000.0,1.0,1,14/6/2018,12,5.0
Ontario,Beamsville,4118 Walcot Court,-79.48392700000002,43.158359,729900.0,1.0,1,23/6/2018,17,3.0
Ontario,Toronto,20 Burnfield Ave,-79.4274949,43.6697538,849000.0,2.0,1,15/6/2018,9,2.0
British Columbia,Burnaby,1303 6659 Southoaks Crescent,-122.9660654,49.2181297,799999.0,2.0,1,1/6/2018,6,2.0
Manitoba,Steinbach,24 428 Henry St,-96.675779,49.525826,172900.0,1.0,1,26/6/2018,11,2.0
Alberta,Milk River,929 Main Street,-112.087053,49.157932,47000.0,1.0,1,26/6/2018,14,4.0
Ontario,Guelph,3 Falcon Circle,-80.20294100000002,43.522623,1149000.0,1.0,1,23/6/2018,17,5.0
Ontario,Kingston,540 Baldwin Court,-76.55019709999998,44.2668012,852900.0,1.0,1,20/6/2018,10,2.0
Ontario,Penetanguishene,80 Fox Street,-79.93258399999998,44.777436,298700.0,1.0,1,26/6/2018,10,4.0
British Columbia,Port Coquitlam,3645 Liverpool Street,-122.7606034,49.2774227,1018800.0,1.0,1,14/6/2018,14,3.0
Ontario,Brampton,5 Nemo Cres,-79.74979040000002,43.7279539,669900.0,2.0,1,9/6/2018,6,1.0
Ontario,St Thomas,6 East Avenue,-81.194723,42.770339,179000.0,1.0,1,2/6/2018,10,5.0
Ontario,Branchton,2019 6th Con Road W,-80.16634,43.320596,699999.0,1.0,1,15/6/2018,35,3.0
Alberta,St. Albert,22 Oakcrest Tc,-113.604662,53.66423100000001,825000.0,2.0,1,17/6/2018,31,3.0
Ontario,Kanata,40 Saddlehorn Crescent,-75.860126,45.28699,399000.0,2.0,1,3/6/2018,15,2.0
British Columbia,Richmond,1107 7371 Westminster Highway,-123.1443845,49.1704237,649000.0,1.0,1,3/6/2018,40,2.0
Ontario,Toronto,Th16-93 The Queensway Ave,-79.4671297,43.6370068,569900.0,1.0,1,28/6/2018,19,6.0
Ontario,Scarborough,1121a Birchmount Rd,-79.280783,43.7383357,899000.0,1.0,1,12/6/2018,30,7.0
Manitoba,Winnipeg,631 Municipal Rd,-97.301601,49.856544,349900.0,1.0,1,20/6/2018,8,2.0
Ontario,Kitchener,7-391 Pioneer Drive,-80.44474,43.395373,234900.0,2.0,1,2/6/2018,47,2.0
Alberta,Calgary,68 Covington Me Ne,-114.0404,51.157977,389900.0,2.0,1,1/6/2018,15,2.0
Quebec,Lasalle,208-1030 Rue Melatti,-73.608892,45.431842,249000.0,1.0,1,1/6/2018,19,3.0
Ontario,London,729 Deveron Crescent 108,-81.194834,42.960599,129900.0,1.0,1,1/6/2018,15,4.0
Nova Scotia,North East Point,3281 Lower Wedgeport,-65.98307489999999,43.7121058,59900.0,2.0,1,4/6/2018,31,3.0
Ontario,Orillia,148 Lily Drive,-79.421491,44.642169,379900.0,2.0,1,1/6/2018,25,1.0
Alberta,Edmonton,14723 118 St Nw,-113.525191259823,53.60975521217879,269900.0,2.0,1,9/6/2018,19,2.0
Ontario,Toronto,1005-280 Donlands Ave,-79.34172099999998,43.6906406,449000.0,2.0,1,6/6/2018,3,3.0
Ontario,Hamilton,726 350 Quigley Road,-79.787312,43.210547,205000.0,1.0,1,12/6/2018,3,3.0
New Brunswick,Grove Hill,452 Grove Hill Road,-65.73504,45.41712,85000.0,1.0,1,2/6/2018,49,3.0
Ontario,Magnetawan,283 Holden Road,-79.574884,45.644254,995000.0,1.0,1,22/6/2018,18,5.0
Ontario,Hamilton,542 Walmer Rd,-79.7758954,43.2451774,438800.0,2.0,1,2/6/2018,17,3.0
British Columbia,Port Moody,889 Cunningham Lane,-122.82852350000002,49.2882358,579900.0,1.0,1,24/6/2018,16,3.0
Ontario,Scarborough,314-4064 Lawrence Ave,-79.1976048,43.766380700000006,288800.0,1.0,1,1/6/2018,46,3.0
Ontario,Baysville,1035 Baxter Lane,-78.941806,45.251564,549900.0,1.0,1,22/6/2018,19,5.0
Ontario,Niagara Falls,7150 Maywood St,-79.11628509999998,43.1065204,349900.0,1.0,1,19/6/2018,8,3.0
Quebec,Val-D'Or,180-182 Rue Parent,-77.81297081,48.10437579,269000.0,2.0,1,9/6/2018,20,1.0
Ontario,Ottawa,1074 Wiseman Crescent,-75.673599,45.368315,489900.0,1.0,1,12/6/2018,7,2.0
Ontario,Courtice,G-1-1669 Nash Rd,-78.78826590000001,43.9143042,329900.0,1.0,1,14/6/2018,20,2.0
Ontario,Toronto,3203-500 Sherbourne St,-79.3756819,43.6679021,699000.0,2.0,1,1/6/2018,6,4.0
Ontario,Toronto,3203-500 Sherbourne St,-79.3756819,43.6679021,699000.0,1.0,1,1/6/2018,6,4.0
Quebec,Longueuil,390 Rue St-Jacques,-73.506428,45.536563,840000.0,2.0,1,8/6/2018,43,2.0
Ontario,Ottawa,1380 Prince Of Wales Drive Unit807,-75.702984,45.369678,139900.0,1.0,1,16/6/2018,20,3.0
Ontario,Pefferlaw,7140 Old Shiloh Rd,-79.2869909,44.2464596,549900.0,2.0,1,12/6/2018,38,2.0
British Columbia,Surrey,304 10720 138 Street,-122.8386407,49.1975192,438000.0,1.0,1,22/6/2018,13,4.0
Saskatchewan,Saskatoon,2326 Eastlake Ave,-106.659792,52.100824,437500.0,1.0,1,28/6/2018,19,3.0
Ontario,Oakville,3357 Hayhurst Crescent,-79.732752,43.37967800000001,799900.0,2.0,1,9/6/2018,40,2.0
British Columbia,Port Coquitlam,106 2330 Shaughnessy Street,-122.7822804,49.2574461,529900.0,1.0,1,6/6/2018,13,1.0
Alberta,Calgary,504 1107 15 Av Sw,-114.087108,51.039064,279900.0,2.0,1,9/6/2018,21,3.0
Ontario,Sault Ste. Marie,134 Leo Ave,-84.3140446,46.5065846,229900.0,1.0,1,16/6/2018,7,3.0
British Columbia,Surrey,94 16177 83 Avenue,-122.773936,49.15386,688000.0,2.0,1,16/6/2018,14,2.0
Ontario,North York,215-1730 Eglinton Ave E,-79.310002,43.725847,480000.0,2.0,1,2/6/2018,28,1.0
Ontario,Toronto,908-318 Richmond St W,-79.392205,43.6489001,498000.0,2.0,1,8/6/2018,26,2.0
British Columbia,Victoria,120-1400 Lynburne Pl,-123.534385,48.477329,425000.0,1.0,1,14/6/2018,28,3.0
Ontario,Brampton,19 Spring Valley Crt,-79.68565840000002,43.7705641,695000.0,1.0,1,28/6/2018,7,2.0
Alberta,Calgary,107 89 St Sw,-114.217109,51.066676,525000.0,1.0,1,1/6/2018,14,4.0
Alberta,Calgary,107 89 St Sw,-114.217109,51.066676,525000.0,1.0,1,1/6/2018,14,4.0
Ontario,Oakville,2221 Wyandotte Drive,-79.720288,43.410346,878000.0,2.0,1,15/6/2018,33,1.0
British Columbia,Vancouver,210 168 Powell Street,-123.1007357,49.2829941,568000.0,1.0,1,1/6/2018,12,4.0
Alberta,Edmonton,5435 111a St Nw Nw,-113.5161,53.492254,449900.0,1.0,1,7/6/2018,14,3.0
Alberta,Edmonton,5435 111a St Nw Nw,-113.5161,53.492254,449900.0,2.0,1,7/6/2018,14,2.0
Ontario,St Thomas,121 Scott Street,-81.192332,42.781214,174900.0,2.0,1,1/6/2018,25,2.0
Quebec,Vaudreuil-Dorion,603-2050 Rue Des Sarcelles,-74.0153494,45.41457237,625000.0,2.0,1,19/6/2018,16,2.0
Quebec,Saint-Placide,3345 Rue Masson,-74.22690940000003,45.52578712,89900.0,1.0,1,5/6/2018,22,4.0
Quebec,Saint-Hubert,1423 Rue Stratton,-73.46349273,45.50042942,225000.0,1.0,1,11/6/2018,15,5.0
Ontario,Mississauga,5430 Loonlake Ave,-79.691438,43.5914137,899000.0,1.0,1,6/6/2018,9,2.0
British Columbia,Nanaimo,7-111 Wall Street,-123.950992,49.174062,274900.0,1.0,1,16/6/2018,12,3.0
Ontario,Guelph,28 Omar Street,-80.264136,43.537555,489000.0,1.0,1,1/6/2018,8,3.0
Manitoba,Brandon,928 12th St,-99.954299,49.835352,255000.0,1.0,1,2/6/2018,49,4.0
British Columbia,Vancouver,Ph5 2150 E Hastings Street,-123.0606373,49.281021,699000.0,1.0,1,1/6/2018,6,2.0
Ontario,Forest,4200 Bluepoint Drive,-82.13959,43.093587,330000.0,1.0,1,2/6/2018,10,4.0
British Columbia,Vanderhoof,11215 Blackwater Road,-123.935246406082,53.898393583624404,535900.0,2.0,1,9/6/2018,19,2.0
British Columbia,Coquitlam,903 3008 Glen Drive,-122.79355,49.282496,629000.0,2.0,1,14/6/2018,16,1.0
British Columbia,Vancouver,305 1708 Columbia Street,-123.109249,49.270042,699000.0,1.0,1,1/6/2018,34,3.0
Alberta,Calgary,152 Bedford Ci Ne,-114.05753,51.129285,385000.0,2.0,1,1/6/2018,19,3.0
Ontario,Peterborough,1020 Parkhill Road 9,-78.359513,44.307318,495000.0,1.0,1,1/6/2018,35,3.0
Quebec,Saint-Joseph-Du-Lac,164 Rue Lucien-Giguère,-73.96963309,45.52476714,429000.0,1.0,1,21/6/2018,28,5.0
Ontario,Seguin,160 Blue Lake Road,-79.983283,45.28768,1100000.0,1.0,1,8/6/2018,18,3.0
British Columbia,Maple Ridge,58 11305 240th Street,-122.5569688,49.2072353,589900.0,1.0,1,9/6/2018,6,4.0
Ontario,Sturgeon Falls,165 Oak Court,-79.920291,46.359616,249900.0,2.0,1,16/6/2018,10,2.0
Ontario,Port Sydney,88 Clearwater Lake Road,-79.269885,45.207833,434000.0,2.0,1,13/6/2018,21,3.0
British Columbia,Surrey,412 8084 120a Street,-122.887498,49.1500809,505000.0,2.0,1,1/6/2018,12,3.0
Ontario,Oakville,95-1042 Falgarwood Drive,-79.682272,43.473069,375000.0,1.0,1,2/6/2018,5,4.0
Alberta,Edmonton,4383 Crabapple Cr Sw,-113.4694412,53.4082775,585000.0,1.0,1,2/6/2018,19,4.0
Ontario,Burlington,7 4198 Longmoor Drive,-79.771637,43.358751,589900.0,1.0,1,1/6/2018,28,2.0
Ontario,Barrie,66 Cassandra Drive,-79.700979,44.41744,499000.0,2.0,1,15/6/2018,14,2.0
British Columbia,Surrey,L101 13555 Gateway Drive,-122.8502175,49.2016152,475000.0,1.0,1,15/6/2018,27,1.0
New Brunswick,Riverview,109 Sanford,-64.771363,46.075106,149900.0,1.0,1,22/6/2018,12,3.0
Ontario,Etobicoke,20 Victoria St,-79.4880637,43.6197179,799000.0,1.0,1,13/6/2018,8,3.0
Ontario,Pembroke,544 Boundary Road,-77.13099,45.815836,168500.0,1.0,1,9/6/2018,32,3.0
Ontario,Brockville,19 Dewick Drive,-75.690122,44.604655,179900.0,1.0,1,21/6/2018,20,4.0
Alberta,Calgary,282 Cranston Dr Se,-113.988873,50.884173,418000.0,1.0,1,25/6/2018,16,4.0
Ontario,Alliston,72 Smith St,-79.8837249,44.1443076,440000.0,1.0,1,13/6/2018,10,3.0
Quebec,Sainte-Adèle,36-220 Ch. Du Mont-Loup-Garou,-74.16918349,45.96720734,177000.0,1.0,1,5/6/2018,22,2.0
Quebec,Pointe-Lebel,991 Rue Granier,-68.17833072,49.1374662,119000.0,2.0,1,1/6/2018,47,1.0
Ontario,Orléans,1481 Thurlow Street,-75.49632700000002,45.478411,309900.0,2.0,1,6/6/2018,24,2.0
Alberta,Edmonton,412 625 Leger Wy Nw,-113.5771226,53.4558845,434900.0,2.0,1,9/6/2018,14,2.0
British Columbia,Richmond,404 6088 Minoru Boulevard,-123.139647,49.168323,822800.0,1.0,1,20/6/2018,23,3.0
Ontario,Brantford,197 Powell Road,-80.297036,43.112522,509900.0,1.0,1,6/6/2018,24,4.0
Ontario,Barrie,46 Patricia Ave,-79.6982393,44.4016261,400000.0,1.0,1,7/6/2018,8,3.0
Prince Edward Island,Stratford,22 Fairfax Drive,-63.1152,46.2178,389900.0,2.0,1,12/6/2018,8,2.0
Ontario,North York,1002-18 Hillcrest Ave,-79.4112192,43.7680813,723000.0,1.0,1,8/6/2018,14,2.0
Saskatchewan,Estevan,1 702 Fourth St E,-102.98506,49.136607,134900.0,1.0,1,29/6/2018,13,5.0
British Columbia,Ladysmith,908 Hanington Road,-123.832153,48.985948,779900.0,1.0,1,12/6/2018,3,4.0
Alberta,Fort Saskatchewan,57 Cranberry Bn,-113.262338,53.6806817,424500.0,1.0,1,25/6/2018,16,3.0
Ontario,London,770 Cheapside Street,-81.23026,43.009059,199900.0,2.0,1,6/6/2018,8,2.0
Ontario,Burlington,401-2045 Appleby Line,-79.790438,43.394508,509000.0,1.0,1,8/6/2018,14,2.0
British Columbia,Surrey,18 10070 137a Street,-122.8415893,49.18560460000001,442500.0,2.0,1,14/6/2018,36,3.0
Ontario,Windsor,4500 Ypres Unit 108,-82.969306,42.305725,215000.0,2.0,1,15/6/2018,33,2.0
Ontario,Toronto,509-437 Roncesvalles Ave,-79.4511385,43.6525561,949000.0,2.0,1,8/6/2018,11,1.0
British Columbia,Vancouver,905 1212 Howe Street,-123.1273488,49.2774937,725000.0,1.0,1,13/6/2018,37,5.0
Manitoba,Winnipeg,19 Rice Rd,-97.143586,49.789306,359900.0,2.0,1,20/6/2018,14,1.0
Ontario,Etobicoke,3904-36 Park Lawn Rd,-79.4836860895157,43.6237372238501,439000.0,1.0,1,21/6/2018,11,3.0
Ontario,Woodstock,93 North Park Crescent,-80.739559,43.1413,399900.0,1.0,1,13/6/2018,10,3.0
Ontario,Kanata,61 Cedarock Drive,-75.861336,45.290025,344900.0,1.0,1,30/6/2018,5,3.0
Ontario,Kanata,61 Cedarock Drive,-75.861336,45.290025,344900.0,2.0,1,30/6/2018,5,3.0
Newfoundland & Labrador,Mount Pearl,40 Jeffers Drive,-52.806463,47.509775,230000.0,2.0,1,13/6/2018,30,5.0
Ontario,Toronto,1018-57 St. Joseph St,-79.387999,43.6653563,659000.0,2.0,1,14/6/2018,8,2.0
Ontario,Toronto,1018-57 St. Joseph St,-79.387999,43.6653563,659000.0,2.0,1,14/6/2018,8,1.0
Ontario,Oakville,206-150 Sabina Drive,-79.724612,43.484929,409900.0,1.0,1,16/6/2018,13,3.0
Ontario,Ottawa,375 Holland Avenue,-75.728002,45.393563,589000.0,1.0,1,1/6/2018,14,3.0
Ontario,Essex,183 Harvey,-82.827726,42.177275,169900.0,1.0,1,1/6/2018,11,3.0
Ontario,Toronto,18-284 Brock Ave,-79.4362704,43.650481,839999.0,1.0,1,19/6/2018,17,4.0
Ontario,Aurora,205 Kemano Rd,-79.4901178,44.00181679999999,1188000.0,1.0,1,13/6/2018,22,3.0
Ontario,Cambridge,17-210 Glamis Road,-80.30282700000002,43.386309,294900.0,2.0,1,7/6/2018,19,1.0
British Columbia,Pemberton,207 7330 Arbutus Street,-122.7984514,50.3180706,324000.0,1.0,1,2/6/2018,34,3.0
Alberta,Leduc,54 Birchglen Cr,-113.570289,53.27205,304900.0,2.0,1,1/6/2018,20,1.0
Ontario,North York,E501-555 Wilson Ave,-79.4479647,43.7340375,439000.0,1.0,1,5/6/2018,17,6.0
British Columbia,Chilliwack,5410 Abbey Crescent,-121.952427761377,49.0996011842626,1015888.0,2.0,1,2/6/2018,35,1.0
British Columbia,Richmond,308 5500 Lynas Lane,-123.1638051,49.173048,399800.0,1.0,1,1/6/2018,7,3.0
Ontario,Grand Bend,8 Oak Street 3,-81.75609200000002,43.314561,219900.0,2.0,1,23/6/2018,20,3.0
Ontario,London,332 Homestead Court,-81.30918199999998,43.00605,219900.0,1.0,1,23/6/2018,18,4.0
Ontario,Southampton,8 Beausoleil Road,-81.375632,44.479645,499000.0,1.0,1,22/6/2018,12,4.0
Alberta,Calgary,77 Cresthaven Vw Sw,-114.266073,51.084452,594900.0,2.0,1,2/6/2018,6,2.0
British Columbia,Port Coquitlam,305 2345 Central Avenue,-122.7836723,49.2566323,469900.0,1.0,1,1/6/2018,19,2.0
British Columbia,Salt Spring Island,16-295 Lower Ganges Rd,-123.506099,48.859261,399900.0,2.0,1,6/6/2018,14,2.0
Quebec,Beloeil,104-44 Rue Serge-Pepin,-73.19107464,45.59255997,264089.0,2.0,1,28/6/2018,20,2.0
Ontario,Orléans,1238 Marenger Street Unit15,-75.542856,45.464192,269000.0,1.0,1,5/6/2018,23,2.0
Ontario,Mississauga,1402-55 Kingsbridge Garden Circ,-79.6507147,43.6032888,569000.0,1.0,1,8/6/2018,36,6.0
New Brunswick,Minto,491 Pleasant Drive,-66.059461,46.07382,189900.0,1.0,1,5/6/2018,1,3.0
Ontario,Mount Forest,185 Egremont Street N,-80.73419399999999,43.98459,319900.0,1.0,1,16/6/2018,27,3.0
Ontario,Kanata,14 Milner Downs Crescent,-75.854538,45.279651,329000.0,1.0,1,9/6/2018,11,5.0
British Columbia,Victoria,4537 Tiedemann Pl,-123.31141,48.491799,1149000.0,2.0,1,28/6/2018,12,3.0
Ontario,Grand Bend,5 River Road 14,-81.758726,43.311826,250000.0,2.0,1,29/6/2018,6,2.0
Ontario,Mississauga,911-339 Rathburn Rd W,-79.6524396,43.5894973,395000.0,2.0,1,9/6/2018,17,2.0
Ontario,Oakville,217-100 Bronte Rd,-79.711377,43.3939073,409000.0,2.0,1,23/6/2018,27,3.0
Ontario,Kitchener,8-35 Westheights Drive,-80.530986,43.428264,279900.0,2.0,1,2/6/2018,11,3.0
British Columbia,Victoria,741 Gladiola Ave,-123.396791,48.469203,741000.0,1.0,1,2/6/2018,6,4.0
New Brunswick,Rothesay,20 Dobbin Street,-65.983197,45.399908,239900.0,1.0,1,7/6/2018,27,3.0
Ontario,St Catharines,144 York Street,-79.253553,43.170031,220000.0,1.0,1,13/6/2018,8,3.0
Alberta,Cochrane,722 River Heights Cr,-114.447017,51.165449,359900.0,1.0,1,22/6/2018,28,4.0
Ontario,Mckellar,47 Fire Route 300,-79.871055,45.4673,995000.0,1.0,1,2/6/2018,24,3.0
Ontario,Breslau,176 St Charles Street W,-80.405118,43.529918,669900.0,1.0,1,29/6/2018,7,3.0
Ontario,Kitchener,32 Eliza Avenue,-80.523925,43.399393,429900.0,2.0,1,21/6/2018,13,2.0
Ontario,Niagara Falls,5010 David Avenue,-79.095528,43.101494,405900.0,1.0,1,7/6/2018,21,3.0
New Brunswick,Beresford,476 Msgr Richard,-65.706548,47.733988,425900.0,2.0,1,6/6/2018,10,2.0
Alberta,Spruce Grove,14 Dorchester Rd,-113.88973190000002,53.5469251,324900.0,2.0,1,13/6/2018,14,2.0
British Columbia,Victoria,3499 Richmond Rd,-123.325961,48.452205,775000.0,2.0,1,6/6/2018,25,1.0
British Columbia,North Vancouver,305 341 Mahon Avenue,-123.0829964,49.3167942,550000.0,1.0,1,3/6/2018,18,4.0
Quebec,Laval,2063 Rue De Zurich,-73.72657583,45.612442,389000.0,2.0,1,20/6/2018,30,1.0
British Columbia,Campbell River,1304-27 Island S Hwy,-125.233519,50.00763900000001,354000.0,2.0,1,8/6/2018,35,2.0
British Columbia,Fanny Bay,7753 Vivian Way,-124.799689,49.499625,459900.0,1.0,1,15/6/2018,27,3.0
Ontario,Port Perry,4 Brook St,-78.9808245,44.0793439,499900.0,1.0,1,6/6/2018,11,3.0
Ontario,Port Burwell,4883 Plank Road,-80.800726,42.662063,415000.0,1.0,1,6/6/2018,15,2.0
British Columbia,Oliver,5-6446 Meadows Dr,-119.546568,49.186598,257000.0,2.0,1,28/6/2018,13,3.0
Ontario,Scarborough,1602-4101 Sheppard Ave E,-79.28355959999998,43.78344110000001,349900.0,1.0,1,9/6/2018,21,4.0
British Columbia,Vancouver,2106 63 Keefer Place,-123.106388,49.279782,619000.0,1.0,1,8/6/2018,7,3.0
Ontario,Woodbridge,*-112 Keystar Crt,-79.5556725,43.862561,779000.0,1.0,1,8/6/2018,14,3.0
British Columbia,Victoria,824 Hutchinson Ave,-123.410605,48.436835,724900.0,1.0,1,24/6/2018,29,4.0
Alberta,Calgary,3724 26a St Se,-113.996116,51.020287,369800.0,2.0,1,16/6/2018,21,2.0
Ontario,Etobicoke,803-215 Sherway Gardens Rd,-79.5570952,43.6095324,489000.0,2.0,1,21/6/2018,27,2.0
Saskatchewan,Regina,213 6 Lorne Pl,-104.613337,50.484703,219900.0,1.0,1,7/6/2018,43,3.0
Alberta,Calgary,208 Copperfield Cl Se,-113.943173,50.910608,425000.0,2.0,1,17/6/2018,6,2.0
Ontario,Richmond Hill,1607-9600 Yonge St,-79.43584109999998,43.8617264,459900.0,2.0,1,2/6/2018,12,2.0
British Columbia,Langley,304 5489 201 Street,-122.6666257,49.1022004,444900.0,1.0,1,1/6/2018,21,5.0
Ontario,Frankford,17 Wallace Street,-77.59866600000002,44.197241,399900.0,2.0,1,9/6/2018,25,2.0
Nova Scotia,Sydney,71 Willow Street,-60.1714382,46.1428081,124500.0,2.0,1,19/6/2018,18,3.0
Ontario,Toronto,506-116 George St,-79.3714833,43.6521363,749900.0,1.0,1,9/6/2018,34,3.0
Saskatchewan,Saskatoon,110 Rajput Way,-106.573755,52.16715900000001,399900.0,2.0,1,13/6/2018,17,1.0
Ontario,Oakville,3054 Highvalley Rd,-79.7743436,43.4317985,719900.0,1.0,1,20/6/2018,14,3.0
Ontario,Oakville,71 North Forster Park Drive,-79.679125,43.449497,999998.0,2.0,1,21/6/2018,20,2.0
Alberta,Sherwood Park,52 Raven Dr,-113.286545,53.524439,319900.0,2.0,1,3/6/2018,11,4.0
Ontario,Brampton,43 Sheepberry Terr,-79.818803,43.699745,599900.0,1.0,1,16/6/2018,18,4.0
Ontario,Brampton,55 Dandelion Rd,-79.74639509999999,43.7509604,694000.0,1.0,1,27/6/2018,11,3.0
Ontario,Thorold,75 Welland Street N,-79.197079,43.130709,292900.0,1.0,1,16/6/2018,10,3.0
Quebec,Saint-Hubert,3112 Rue Des Émeraudes,-73.4736866,45.50346682,220000.0,1.0,1,18/6/2018,27,2.0
Quebec,Blainville,11 Rue Des Bouvreuils,-73.899507,45.682015,269900.0,2.0,1,12/6/2018,22,2.0
British Columbia,Port Coquitlam,112 2484 Wilson Avenue,-122.7873248,49.2607095,523800.0,1.0,1,6/6/2018,6,1.0
Ontario,Brampton,25 Quail Feather Cres,-79.735113,43.754786,559000.0,1.0,1,16/6/2018,6,4.0
Ontario,Stittsville,16 Shipley Crescent,-75.939427,45.262091,549900.0,2.0,1,16/6/2018,21,2.0
British Columbia,Coquitlam,102 1185 Pacific Street,-122.7982951,49.283602,469900.0,1.0,1,8/6/2018,42,5.0
Ontario,Brampton,10 Cranberry Cres,-79.7493085,43.6487223,659000.0,1.0,1,8/6/2018,11,3.0
Alberta,Edmonton,2620 Marion Pl Sw,-113.5338657,53.4278033,458900.0,1.0,1,21/6/2018,30,3.0
British Columbia,Courtenay,B-1930 Cumberland Road,-125.005927,49.674475,375000.0,1.0,1,1/6/2018,20,5.0
Ontario,London,357 South Carriage Way,-81.32555,42.99642,789900.0,1.0,1,9/6/2018,11,5.0
Ontario,Mississauga,2637 Council Ring Rd,-79.68623290000002,43.5287384,839000.0,1.0,1,6/6/2018,14,6.0
Ontario,Burlington,301 Belvenia Rd,-79.7602494,43.35355120000001,949000.0,1.0,1,26/6/2018,11,2.0
Ontario,Oshawa,28-350 Camelot Crt,-78.8444023,43.912983200000006,310000.0,1.0,1,28/6/2018,17,2.0
Ontario,Breslau,47-31 Townsend Drive,-80.412051,43.485242,509900.0,1.0,1,2/6/2018,6,1.0
Ontario,Leamington,55 Foundry,-82.594572,42.056026,94500.0,1.0,1,5/6/2018,1,4.0
Ontario,Scarborough,9-31 Island Rd,-79.142262,43.7972237,499000.0,1.0,1,23/6/2018,21,4.0
Manitoba,Brandon,169 Glendale Bay,-99.945134,49.878679,159900.0,2.0,1,19/6/2018,13,1.0
British Columbia,Richmond,1410 8871 Lansdowne Road,-123.1249762,49.1739477,538000.0,1.0,1,1/6/2018,26,3.0
Ontario,Port Severn,641 Honey Harbour Rd,-79.7610407,44.8162648,549900.0,1.0,1,12/6/2018,22,2.0
Manitoba,Winnipeg,164 Mcfarlane St,-97.119792,49.906287,60000.0,1.0,1,7/6/2018,13,4.0
Manitoba,Winnipeg,26 Hindley Ave,-97.110596,49.839443,199900.0,2.0,1,28/6/2018,20,1.0
British Columbia,Pitt Meadows,306 19241 Ford Road,-122.68865900000002,49.22264000000001,479900.0,2.0,1,9/6/2018,39,1.0
Prince Edward Island,Summerside,234 Lecky Road,-63.7511,46.3766,204900.0,1.0,1,9/6/2018,42,4.0
Ontario,Caledon,55 Cedarholme Ave,-79.8169462,43.7431348,979900.0,2.0,1,25/6/2018,6,1.0
Ontario,Toronto,615-150 East Liberty St,-79.4162418,43.6387639,529000.0,2.0,1,22/6/2018,7,2.0
Ontario,Stouffville,106 John Davis Gate,-79.2638816,43.9754912,699000.0,1.0,1,22/6/2018,12,3.0
Ontario,Brampton,5 Vauxhall Cres,-79.834716,43.6911501,567000.0,2.0,1,22/6/2018,14,2.0
Ontario,Moonbeam,6 Jean Rd,-82.1908887259507,49.3155870317373,134000.0,2.0,1,20/6/2018,30,3.0
Ontario,Scarborough,324-75 Bamburgh Circ,-79.32565670000002,43.8147065,488000.0,1.0,1,22/6/2018,29,4.0
British Columbia,Williams Lake,1465 N 11th Avenue,-122.151808512665,52.1559969867342,258000.0,2.0,1,2/6/2018,21,3.0
Ontario,Toronto,203-1055 Bay St,-79.3876245,43.6668152,399000.0,2.0,1,1/6/2018,12,0.0
Ontario,Toronto,203-1055 Bay St,-79.3876245,43.6668152,399000.0,2.0,1,1/6/2018,12,2.0
Ontario,Mississauga,3102-45 Kingsbridge Garden Circ,-79.65227420000002,43.6041129,639900.0,1.0,1,25/6/2018,26,3.0
Ontario,Oshawa,628 Coldstream Dr,-78.8704457,43.94500220000001,499900.0,1.0,1,20/6/2018,15,6.0
Manitoba,Winnipeg,579 St Catherine St,-97.099195,49.880416,179900.0,1.0,1,19/6/2018,23,5.0
Ontario,Huntsville,6 Millwood Court N,-79.202579,45.350542,472000.0,1.0,1,22/6/2018,19,3.0
Ontario,Tara,43 Matilda Street,-81.146831,44.479543,239000.0,1.0,1,16/6/2018,14,4.0
Alberta,Sherwood Park,332 Campbell Dr,-113.2824699,53.5553424,575000.0,2.0,1,6/6/2018,13,1.0
Ontario,Whitby,44 Playfair Rd,-78.9465452,43.88781270000001,497000.0,2.0,1,1/6/2018,12,1.0
Ontario,Limoges,114 Asselin Street,-75.254348,45.34402100000001,279900.0,1.0,1,7/6/2018,14,3.0
Quebec,Verdun,202-20 Place Du Soleil,-73.54178468,45.46416181,354900.0,1.0,1,1/6/2018,14,4.0
Alberta,Whitecourt,76 Wellwood Drive,-115.661689,54.14944499999999,382900.0,2.0,1,13/6/2018,36,2.0
Ontario,Toronto,701-55 Regent Park Blvd,-79.36102509999998,43.6594213,549000.0,2.0,1,19/6/2018,17,2.0
Ontario,Mississauga,2112-365 Prince Of Wales Dr,-79.6479385,43.5895049,429900.0,1.0,1,13/6/2018,35,4.0
British Columbia,Surrey,14437 58 Avenue,-122.822116,49.108341,1198000.0,1.0,1,19/6/2018,31,3.0
Ontario,Carleton Place,120 Johnston Street,-76.13729599999998,45.123844,224900.0,1.0,1,24/6/2018,18,3.0
Ontario,Hamilton,305 11 Woodman Drive,-79.77886,43.230619,179900.0,2.0,1,2/6/2018,10,3.0
Alberta,Calgary,804 Shawnee Dr Sw,-114.081149,50.926537,489900.0,1.0,1,1/7/2018,13,1.0
Alberta,Calgary,804 Shawnee Dr Sw,-114.081149,50.926537,489900.0,1.0,1,1/7/2018,13,2.0
Ontario,Seguin,35 Maple Lake Estates Road,-79.78920600000002,45.373485,199900.0,2.0,1,15/6/2018,14,1.0
Ontario,North York,2316-31 Bales Ave,-79.4088886,43.7601326,499900.0,2.0,1,16/6/2018,24,2.0
Ontario,North York,2316-31 Bales Ave,-79.4088886,43.7601326,499900.0,2.0,1,16/6/2018,24,1.0
Ontario,Cambridge,17 Dyer Court,-80.323773,43.436771,349900.0,2.0,1,6/6/2018,3,2.0
Ontario,Milton,740 Casarin Cres,-79.8458596,43.5029422,849990.0,1.0,1,22/6/2018,16,3.0
British Columbia,Richmond,105 6660 Buswell Street,-123.1334897,49.1652287,519000.0,1.0,1,30/6/2018,20,4.0
Quebec,Boisbriand,1195 Av. Cournoyer,-73.839145,45.617933,389000.0,1.0,1,23/6/2018,11,3.0
Ontario,Orillia,763 Broadview Avenue,-79.377146,44.617512,799900.0,2.0,1,26/6/2018,17,2.0
British Columbia,Nanaimo,563 Bradley Street,-123.951811,49.174974,299900.0,2.0,1,6/6/2018,20,2.0
Ontario,Etobicoke,2106-2212 Lake Shore Blvd W,-79.48244220000002,43.622589700000006,579900.0,2.0,1,22/6/2018,26,3.0
British Columbia,Vancouver,311 5981 Gray Avenue,-123.2351784,49.2526193,878000.0,1.0,1,3/6/2018,48,3.0
Ontario,Egmondville,71 Water Street,-81.406092,43.539989,279900.0,2.0,1,12/6/2018,1,3.0
Ontario,Mississauga,1710-1515 Lakeshore Rd E,-79.5482307,43.58831170000001,599900.0,2.0,1,23/6/2018,22,2.0
Ontario,Scarborough,419a-10 Guildwood Pkwy,-79.2050119,43.74941389999999,585000.0,1.0,1,15/6/2018,22,4.0
Quebec,Laval,1771 Rue De Verbier,-73.716266,45.604702,429000.0,2.0,1,29/6/2018,20,0.0
British Columbia,Vancouver,Ph1 5788 Vine Street,-123.1595965,49.2339053,399000.0,1.0,1,1/6/2018,6,4.0
Ontario,Bowmanville,8 Argent St,-78.69001800000002,43.9284973,624900.0,1.0,1,16/6/2018,11,4.0
Ontario,Yarker,368 Wilson Road,-77.451864,44.336441,379900.0,1.0,1,7/6/2018,13,4.0
Ontario,Trenton,79 Parkview Heights,-77.59151,44.089055,304900.0,2.0,1,9/6/2018,5,2.0
Ontario,Bracebridge,1117 North Clear Lake Rd N,-79.0065479278564,45.0436227411765,799000.0,2.0,1,7/6/2018,20,2.0
Ontario,Toronto,301-52 Sumach St,-79.35887690000001,43.65598789999999,595000.0,1.0,1,13/6/2018,10,5.0
Ontario,Brampton,30 Hocken Crt,-79.7509952,43.7498579,829900.0,2.0,1,15/6/2018,25,1.0
Quebec,Vaudreuil-Dorion,494z Av. André-Chartrand,-74.03906707,45.38329193,257800.0,2.0,1,13/6/2018,38,2.0
British Columbia,Richmond,1512 5811 No. 3 Road,-123.1372096,49.1725928,759000.0,1.0,1,21/6/2018,15,5.0
Quebec,La Tuque,368 Carré Chapleau,-72.782374,47.412764,75000.0,2.0,1,2/6/2018,7,1.0
Ontario,Bracebridge,1140b Gartersnake Lake Rd,-79.16599959999998,44.956397,125000.0,1.0,1,17/6/2018,28,5.0
British Columbia,Chilliwack,220 7694 Evans Road,-121.9769084,49.141901,275000.0,1.0,1,1/6/2018,34,3.0
Ontario,Wellington,409 Main Street,-77.360199,43.949688,369000.0,2.0,1,12/6/2018,8,2.0
British Columbia,Victoria,416-2655 Sooke Rd,-123.525223,48.43264,424900.0,1.0,1,9/6/2018,10,3.0
Ontario,Kitchener,398 Moorlands Crescent,-80.44312099999998,43.373967,650000.0,2.0,1,12/6/2018,5,3.0
Ontario,Ottawa,554 Orkney Private,-75.709839,45.363643,289900.0,2.0,1,19/6/2018,29,3.0
Ontario,Oakville,517-1300 Marlborough Crt,-79.69218509999997,43.4702037,319900.0,1.0,1,12/6/2018,35,2.0
Manitoba,Morris,123 Kennedy St W,-97.365485,49.35798,150000.0,1.0,1,5/6/2018,14,3.0
Ontario,Orléans,1867 Longman Crescent,-75.51694599999998,45.453488,344900.0,2.0,1,15/6/2018,12,1.0
Alberta,Calgary,64 Cougar Ridge Me Sw,-114.200511,51.067775,379000.0,1.0,1,2/6/2018,44,2.0
British Columbia,Richmond,704 5911 Alderbridge Way,-123.1448994,49.1708652,398000.0,1.0,1,1/6/2018,5,3.0
Ontario,Hamilton,318 East 43rd Street,-79.837749,43.223987,318500.0,1.0,1,1/6/2018,6,4.0
Ontario,Bala,1009 Hurling Pt. Road 6,-79.64873,45.021672,849000.0,1.0,1,1/6/2018,39,4.0
Quebec,Beauharnois,283 Ch. St-Louis,-73.87934971,45.30761363,175000.0,1.0,1,22/6/2018,11,3.0
Manitoba,Winnipeg,760 Cavalier Dr,-97.300459,49.88857700000001,282500.0,2.0,1,16/6/2018,14,2.0
British Columbia,Coquitlam,107 1040 King Albert Avenue,-122.8646977,49.25122800000001,425000.0,1.0,1,14/6/2018,7,2.0
British Columbia,Sparwood,106 Tamarack Avenue,-114.887516,49.73373,179000.0,2.0,1,1/6/2018,19,3.0
Saskatchewan,Regina,2941 Rochdale Blvd,-104.623936,50.496535,339900.0,1.0,1,2/6/2018,38,4.0
Ontario,Sarnia,1721 Wilgrun Drive,-82.365959,43.015406,399900.0,2.0,1,9/6/2018,6,2.0
Ontario,Mississauga,1110-1100 Caven St,-79.5698438,43.5707456,325900.0,1.0,1,28/6/2018,22,3.0
British Columbia,Port Moody,22 2000 Panorama Drive,-122.8288862,49.3019606,799800.0,1.0,1,21/6/2018,30,2.0
Ontario,Ajax,4 Maple St,-79.027505,43.854368,449900.0,1.0,1,12/6/2018,16,3.0
Nova Scotia,Bedford,99 Rockmanor Drive,-63.64844599999999,44.7405728,282900.0,1.0,1,29/6/2018,15,4.0
Newfoundland & Labrador,Cormack,9-11 Maple Avenue,-57.363026,49.304745,169900.0,2.0,1,2/6/2018,32,2.0
Ontario,Gloucester,4437 Harper Avenue,-75.616651,45.430633,295000.0,1.0,1,2/6/2018,31,4.0
Ontario,Brampton,9 Portsdown Rd,-79.8219172,43.6760838,674900.0,1.0,1,18/6/2018,27,3.0
Alberta,Calgary,260 Parkside Cr Se,-114.034214,50.923394,514900.0,1.0,1,16/6/2018,6,3.0
Alberta,Edmonton,13440 112 Street Nw,-113.514178,53.59665699999999,245900.0,2.0,1,29/6/2018,1,3.0
Alberta,St. Albert,80 Lester Cr,-113.6466403,53.6393154,367500.0,1.0,1,10/6/2018,13,5.0
Alberta,St. Albert,80 Lester Cr,-113.6466403,53.6393154,367500.0,2.0,1,10/6/2018,13,1.0
Ontario,Welland,315-485 Thorold Rd,-79.2812452,43.0033614,199000.0,1.0,1,20/6/2018,10,4.0
Ontario,Toronto,202-530 St Clair Ave W,-79.4193295,43.68320070000001,699000.0,2.0,1,28/6/2018,9,3.0
Ontario,Toronto,202-530 St Clair Ave W,-79.4193295,43.68320070000001,699000.0,1.0,1,28/6/2018,9,6.0
Ontario,Peterborough,190 Bowen Drive,-78.334968,44.33587,450000.0,1.0,1,27/6/2018,10,4.0
Ontario,Peterborough,190 Bowen Drive,-78.334968,44.33587,450000.0,1.0,1,27/6/2018,10,5.0
Ontario,Toronto,3505-110 Charles St E,-79.3803887,43.6701589,839000.0,1.0,1,10/6/2018,23,3.0
Ontario,Milton,250 Woodley Cres,-79.86127309999998,43.4890704,649900.0,1.0,1,15/6/2018,4,4.0
Ontario,Newmarket,129 Coleridge Dr,-79.4760045,44.0312639,598800.0,1.0,1,12/6/2018,24,3.0
Ontario,Markham,108 Miles Farm Rd,-79.27079309999998,43.83423870000001,749000.0,1.0,1,28/6/2018,8,3.0
Ontario,Kitchener,108 Homestead Place,-80.536817,43.417315,389900.0,1.0,1,2/6/2018,13,3.0
Ontario,Courtice,70 Yorkville Dr,-78.789294,43.9023486,449900.0,1.0,1,7/6/2018,24,4.0
Quebec,Saint-Hubert,1866 Rue Duke,-73.476955,45.499551,349000.0,1.0,1,1/6/2018,18,4.0
British Columbia,Surrey,50 3109 161 Street,-122.775594,49.058578,1018800.0,1.0,1,1/6/2018,36,3.0
Ontario,Newmarket,34 William Curtis Circ,-79.4300929,44.0529641,485000.0,1.0,1,16/6/2018,34,1.0
Ontario,Beaverton,388 Morrison Avenue,-79.15899399999998,44.442847,520000.0,1.0,1,15/6/2018,6,4.0
Manitoba,Winnipeg,409 Murray Ave,-97.105649,49.957073,354900.0,1.0,1,2/6/2018,10,4.0
Ontario,Windsor,1020 Dawson Road,-82.975608,42.322902,189900.0,2.0,1,1/6/2018,8,2.0
Quebec,Montréal,104-318 Rue Desmarteau,-73.51140600000002,45.602902,229000.0,2.0,1,19/6/2018,17,0.0
Ontario,Toronto,305-60 Colborne St,-79.3747254,43.6493345,439900.0,1.0,1,2/6/2018,18,4.0
Ontario,Etobicoke,208-2000 Islington Ave,-79.5479308,43.6982421,648000.0,1.0,1,1/6/2018,11,2.0
Ontario,Brampton,7 Ballerina Gdns,-79.7760969,43.74381500000001,529900.0,2.0,1,23/6/2018,19,2.0
Ontario,Ottawa,179 George Street Unit507,-75.687813,45.429025,324900.0,2.0,1,5/6/2018,36,2.0
Alberta,Canmore,307 191 Kananaskis Wy,-115.342468,51.08335,425250.0,2.0,1,1/6/2018,15,1.0
Ontario,Toronto,2412-33 Charles St E,-79.3844795,43.6685778,471689.0,2.0,1,15/6/2018,27,5.0
Ontario,Toronto,2412-33 Charles St E,-79.3844795,43.6685778,471689.0,2.0,1,15/6/2018,27,1.0
Ontario,Windsor,1697 Albert,-82.993607,42.307412,159900.0,1.0,1,7/6/2018,6,3.0
Manitoba,Winnipeg,1191 Devonshire Dr,-97.033416,49.90864000000001,319900.0,1.0,1,2/6/2018,32,3.0
Ontario,Kingston,1207 Crossfield Avenue,-76.5509309,44.26431820000001,499000.0,1.0,1,13/6/2018,23,3.0
Ontario,Greely,7078 Parkway Road,-75.562842,45.261537,389900.0,1.0,1,13/6/2018,8,4.0
Ontario,Sudbury,247 Second Avenue S,-80.935102,46.484991,337500.0,2.0,1,8/6/2018,34,2.0
Ontario,Oakville,41 Nelson St,-79.7062411,43.3962425,1000000.0,1.0,1,29/6/2018,21,2.0
Ontario,Mississauga,601 Shoreline (Unit 38) Dr,-79.6301585,43.57084310000001,688900.0,1.0,1,8/6/2018,33,2.0
Ontario,Nepean,606 Lauraleaf Crescent,-75.731166,45.2414,322900.0,1.0,1,1/6/2018,2,2.0
British Columbia,Lone Butte,8476 Gerald Crescent,-120.626352959305,51.50154379319451,319000.0,1.0,1,7/6/2018,36,4.0
Ontario,Komoka,24 Valleyview Crescent,-81.438732,42.959967,619900.0,1.0,1,2/6/2018,19,3.0
Quebec,Varennes,257 Boul. De La Marine,-73.425326,45.658956,229900.0,1.0,1,1/6/2018,11,5.0
British Columbia,Coquitlam,203 2958 Whisper Way,-122.7900769,49.2961655,629000.0,1.0,1,1/6/2018,25,4.0
Ontario,Thornhill,68 Gauguin Ave,-79.47827629999998,43.8317873,919000.0,2.0,1,6/6/2018,11,2.0
Ontario,Windsor,2270 Chateau,-82.904839,42.317632,289900.0,1.0,1,20/6/2018,7,3.0
Ontario,Scarborough,108 Fawcett Tr,-79.20924699999998,43.81390800000001,698999.0,2.0,1,13/6/2018,7,2.0
Ontario,North York,910-55 Harrison Garden Blvd,-79.4074155,43.756684,599000.0,2.0,1,5/6/2018,30,2.0
Ontario,North York,910-55 Harrison Garden Blvd,-79.4074155,43.756684,599000.0,2.0,1,5/6/2018,30,1.0
Ontario,North York,503-72 Esther Shiner Blvd,-79.3712162,43.7683778,464900.0,2.0,1,5/6/2018,23,5.0
Ontario,North York,503-72 Esther Shiner Blvd,-79.3712162,43.7683778,464900.0,1.0,1,5/6/2018,23,3.0
Ontario,Waterloo,658 Rhine Fall Drive,-80.585564,43.456917,649900.0,2.0,1,29/6/2018,8,1.0
British Columbia,Vancouver,301 658 W 7th Avenue,-123.1191756,49.264805,699900.0,1.0,1,3/6/2018,12,3.0
Manitoba,Winnipeg,683 Fleet Ave,-97.150332,49.868068,279900.0,2.0,1,20/6/2018,10,2.0
British Columbia,Victoria,301-4030 Quadra St,-123.367179,48.471234,399000.0,1.0,1,1/6/2018,30,5.0
Ontario,Courtice,1612 Nash Rd,-78.7935792,43.9133404,699900.0,1.0,1,21/6/2018,26,4.0
Alberta,Calgary,1511 48 St Se,-113.964331,51.040505,355000.0,2.0,1,1/6/2018,15,3.0
British Columbia,Richmond,1005 6068 No 3 Road,-123.1361489,49.1694809,938000.0,1.0,1,23/6/2018,13,3.0
Ontario,St Catharines,51 Dundee Drive,-79.202384,43.145044,390000.0,1.0,1,1/6/2018,17,3.0
Ontario,Brantford,40 White Owl Crescent,-80.24476800000002,43.188509,289900.0,2.0,1,21/6/2018,13,1.0
Ontario,Mcdonalds Corners,105 Purdon'S Bay Road,-76.549521,44.977485,234900.0,1.0,1,24/6/2018,22,4.0
Alberta,Wabasca,2763 Neewatin Street,-113.894022,55.983569,206000.0,2.0,1,23/6/2018,22,2.0
